$GPRMC,221112.059,A,3138.3807,S,06040.4593,W,1.22,134.84,051213,,,A*6D
$GPRMC,221113.062,A,3138.3816,S,06040.4588,W,0.99,128.00,051213,,,A*6E
$GPRMC,221114.061,A,3138.3807,S,06040.4591,W,0.80,128.62,051213,,,A*6E
$GPRMC,221115.062,A,3138.3806,S,06040.4589,W,0.60,137.94,051213,,,A*6D
$GPRMC,221116.062,A,3138.3800,S,06040.4589,W,0.38,137.94,051213,,,A*65
$GPRMC,221117.061,A,3138.3796,S,06040.4590,W,0.16,137.94,051213,,,A*63
$GPRMC,221118.060,A,3138.3793,S,06040.4591,W,0.09,137.94,051213,,,A*67
$GPRMC,221119.061,A,3138.3788,S,06040.4590,W,0.15,137.94,051213,,,A*61
$GPRMC,221120.062,A,3138.3782,S,06040.4592,W,0.06,137.94,051213,,,A*62
$GPRMC,221121.062,A,3138.3779,S,06040.4594,W,0.15,137.94,051213,,,A*63
$GPRMC,221122.068,A,3138.3795,S,06040.4575,W,0.16,137.94,051213,,,A*64
$GPRMC,221124.000,A,3138.3796,S,06040.4576,W,0.10,137.94,051213,,,A*6A
$GPRMC,221125.000,A,3138.3796,S,06040.4576,W,0.05,137.94,051213,,,A*6F
$GPRMC,221126.000,A,3138.3795,S,06040.4576,W,0.08,137.94,051213,,,A*62
$GPRMC,221127.000,A,3138.3796,S,06040.4576,W,0.04,137.94,051213,,,A*6C
$GPRMC,221128.000,A,3138.3797,S,06040.4575,W,0.02,137.94,051213,,,A*67
$GPRMC,221129.000,A,3138.3797,S,06040.4576,W,0.03,137.94,051213,,,A*64
$GPRMC,221130.000,A,3138.3797,S,06040.4575,W,0.07,137.94,051213,,,A*6B
$GPRMC,221131.000,A,3138.3797,S,06040.4576,W,0.04,137.94,051213,,,A*6A
$GPRMC,221132.000,A,3138.3796,S,06040.4576,W,0.19,137.94,051213,,,A*64
$GPRMC,221133.000,A,3138.3797,S,06040.4576,W,0.10,137.94,051213,,,A*6D
$GPRMC,221134.000,A,3138.3798,S,06040.4575,W,1.06,141.23,051213,,,A*6D
$GPRMC,221135.000,A,3138.3802,S,06040.4573,W,1.94,143.26,051213,,,A*6A
$GPRMC,221136.000,A,3138.3806,S,06040.4569,W,2.32,138.11,051213,,,A*61
$GPRMC,221137.000,A,3138.3811,S,06040.4565,W,2.34,134.82,051213,,,A*6A
$GPRMC,221138.000,A,3138.3816,S,06040.4561,W,2.33,136.97,051213,,,A*67
$GPRMC,221139.000,A,3138.3821,S,06040.4557,W,2.20,140.22,051213,,,A*6A
$GPRMC,221140.000,A,3138.3826,S,06040.4553,W,2.28,137.89,051213,,,A*6E
$GPRMC,221141.000,A,3138.3831,S,06040.4549,W,2.04,135.92,051213,,,A*64
$GPRMC,221142.000,A,3138.3834,S,06040.4546,W,1.83,139.36,051213,,,A*63
$GPRMC,221143.000,A,3138.3836,S,06040.4542,W,1.18,94.35,051213,,,A*53
$GPRMC,221144.000,A,3138.3833,S,06040.4539,W,2.16,48.47,051213,,,A*54
$GPRMC,221145.000,A,3138.3828,S,06040.4534,W,2.22,42.02,051213,,,A*5E
$GPRMC,221146.000,A,3138.3824,S,06040.4529,W,2.25,42.67,051213,,,A*59
$GPRMC,221147.000,A,3138.3820,S,06040.4524,W,2.20,46.03,051213,,,A*52
$GPRMC,221148.000,A,3138.3815,S,06040.4519,W,2.35,46.12,051213,,,A*51
$GPRMC,221149.000,A,3138.3811,S,06040.4514,W,2.18,46.87,051213,,,A*5A
$GPRMC,221150.000,A,3138.3806,S,06040.4509,W,2.22,48.46,051213,,,A*52
$GPRMC,221151.000,A,3138.3802,S,06040.4504,W,2.01,48.35,051213,,,A*5F
$GPRMC,221152.000,A,3138.3798,S,06040.4503,W,1.48,353.48,051213,,,A*6A
$GPRMC,221153.000,A,3138.3794,S,06040.4506,W,2.09,350.44,051213,,,A*6B
$GPRMC,221154.000,A,3138.3789,S,06040.4512,W,2.47,347.31,051213,,,A*6B
$GPRMC,221155.000,A,3138.3784,S,06040.4518,W,2.48,344.16,051213,,,A*64
$GPRMC,221156.000,A,3138.3779,S,06040.4524,W,2.46,341.51,051213,,,A*62
$GPRMC,221157.000,A,3138.3773,S,06040.4530,W,2.52,339.15,051213,,,A*66
$GPRMC,221158.000,A,3138.3768,S,06040.4536,W,2.35,336.59,051213,,,A*63
$GPRMC,221159.000,A,3138.3762,S,06040.4541,W,2.30,334.63,051213,,,A*66
$GPRMC,221200.000,A,3138.3759,S,06040.4546,W,1.54,331.50,051213,,,A*62
$GPRMC,221201.000,A,3138.3759,S,06040.4552,W,1.85,230.30,051213,,,A*6C
$GPRMC,221202.000,A,3138.3762,S,06040.4557,W,2.42,229.60,051213,,,A*67
$GPRMC,221203.000,A,3138.3767,S,06040.4563,W,2.23,228.78,051213,,,A*6B
$GPRMC,221204.000,A,3138.3771,S,06040.4568,W,2.17,227.02,051213,,,A*65
$GPRMC,221205.000,A,3138.3775,S,06040.4574,W,2.34,225.79,051213,,,A*62
$GPRMC,221206.000,A,3138.3780,S,06040.4579,W,2.31,226.43,051213,,,A*69
$GPRMC,221207.000,A,3138.3784,S,06040.4584,W,2.07,224.13,051213,,,A*6C
$GPRMC,221208.000,A,3138.3788,S,06040.4590,W,2.07,229.93,051213,,,A*6F
$GPRMC,221209.000,A,3138.3791,S,06040.4594,W,1.57,229.03,051213,,,A*6D
$GPRMC,221210.000,A,3138.3793,S,06040.4595,W,0.40,229.03,051213,,,A*61
$GPRMC,221211.000,A,3138.3794,S,06040.4594,W,0.37,229.03,051213,,,A*66
$GPRMC,221212.000,A,3138.3793,S,06040.4595,W,0.13,229.03,051213,,,A*65
$GPRMC,221213.000,A,3138.3793,S,06040.4595,W,0.07,229.03,051213,,,A*61
$GPRMC,221214.000,A,3138.3793,S,06040.4595,W,0.13,229.03,051213,,,A*63
$GPRMC,221215.000,A,3138.3793,S,06040.4595,W,0.11,229.03,051213,,,A*60
$GPRMC,221216.000,A,3138.3794,S,06040.4595,W,0.10,229.03,051213,,,A*65
$GPRMC,221217.000,A,3138.3794,S,06040.4595,W,0.19,229.03,051213,,,A*6D
$GPRMC,221218.000,A,3138.3794,S,06040.4596,W,0.10,229.03,051213,,,A*68
$GPRMC,221219.000,A,3138.3794,S,06040.4596,W,0.11,229.03,051213,,,A*68
$GPRMC,221220.000,A,3138.3795,S,06040.4596,W,0.22,229.03,051213,,,A*63
$GPRMC,221221.000,A,3138.3795,S,06040.4596,W,0.89,133.68,051213,,,A*66
$GPRMC,221222.000,A,3138.3799,S,06040.4591,W,1.60,125.42,051213,,,A*67
$GPRMC,221223.000,A,3138.3803,S,06040.4586,W,1.79,128.10,051213,,,A*6E
$GPRMC,221224.000,A,3138.3806,S,06040.4582,W,1.79,130.50,051213,,,A*65
$GPRMC,221225.000,A,3138.3811,S,06040.4577,W,1.87,133.03,051213,,,A*6C
$GPRMC,221226.000,A,3138.3816,S,06040.4571,W,2.20,135.47,051213,,,A*66
$GPRMC,221227.000,A,3138.3825,S,06040.4567,W,2.22,133.02,051213,,,A*65
$GPRMC,221228.000,A,3138.3830,S,06040.4562,W,2.05,135.35,051213,,,A*6C
$GPRMC,221229.000,A,3138.3836,S,06040.4557,W,1.01,131.95,051213,,,A*64
$GPRMC,221230.000,A,3138.3836,S,06040.4554,W,1.90,126.77,051213,,,A*6D
$GPRMC,221231.000,A,3138.3833,S,06040.4548,W,2.29,120.58,051213,,,A*6E
$GPRMC,221232.000,A,3138.3829,S,06040.4543,W,2.27,114.63,051213,,,A*6C
$GPRMC,221233.000,A,3138.3825,S,06040.4537,W,2.28,108.08,051213,,,A*6D
$GPRMC,221234.000,A,3138.3821,S,06040.4531,W,2.47,102.46,051213,,,A*61
$GPRMC,221235.000,A,3138.3816,S,06040.4524,W,2.49,96.89,051213,,,A*51
$GPRMC,221236.000,A,3138.3811,S,06040.4518,W,2.42,91.61,051213,,,A*50
$GPRMC,221237.000,A,3138.3807,S,06040.4512,W,1.94,39.07,051213,,,A*56
$GPRMC,221238.000,A,3138.3803,S,06040.4511,W,1.61,339.71,051213,,,A*66
$GPRMC,221239.000,A,3138.3798,S,06040.4513,W,2.20,318.35,051213,,,A*6D
$GPRMC,221240.000,A,3138.3793,S,06040.4518,W,2.20,317.04,051213,,,A*6E
$GPRMC,221241.000,A,3138.3788,S,06040.4523,W,2.25,315.59,051213,,,A*62
$GPRMC,221242.000,A,3138.3783,S,06040.4528,W,2.24,318.91,051213,,,A*69
$GPRMC,221243.000,A,3138.3778,S,06040.4533,W,2.18,319.94,051213,,,A*6D
$GPRMC,221244.000,A,3138.3773,S,06040.4538,W,2.20,319.29,051213,,,A*67
$GPRMC,221245.000,A,3138.3768,S,06040.4543,W,2.22,318.84,051213,,,A*64
$GPRMC,221246.000,A,3138.3764,S,06040.4548,W,2.02,317.31,051213,,,A*63
$GPRMC,221247.000,A,3138.3763,S,06040.4553,W,1.51,253.05,051213,,,A*6C
$GPRMC,221248.000,A,3138.3765,S,06040.4558,W,2.16,229.63,051213,,,A*63
$GPRMC,221249.000,A,3138.3768,S,06040.4564,W,2.11,227.49,051213,,,A*61
$GPRMC,221250.000,A,3138.3771,S,06040.4569,W,2.07,225.81,051213,,,A*6D
$GPRMC,221251.000,A,3138.3775,S,06040.4574,W,2.08,222.90,051213,,,A*6C
$GPRMC,221252.000,A,3138.3779,S,06040.4579,W,1.92,228.45,051213,,,A*6C
$GPRMC,221253.000,A,3138.3783,S,06040.4584,W,2.20,226.84,051213,,,A*63
$GPRMC,221254.000,A,3138.3786,S,06040.4590,W,2.13,226.83,051213,,,A*63
$GPRMC,221255.000,A,3138.3790,S,06040.4595,W,1.82,227.11,051213,,,A*61
$GPRMC,221256.000,A,3138.3794,S,06040.4597,W,1.45,223.95,051213,,,A*67
$GPRMC,221257.000,A,3138.3796,S,06040.4597,W,0.84,141.88,051213,,,A*63
$GPRMC,221258.000,A,3138.3798,S,06040.4595,W,0.50,141.88,051213,,,A*69
$GPRMC,221259.000,A,3138.3800,S,06040.4594,W,0.50,141.88,051213,,,A*67
$GPRMC,221300.000,A,3138.3801,S,06040.4593,W,0.50,141.88,051213,,,A*6C
$GPRMC,221301.000,A,3138.3802,S,06040.4592,W,0.50,141.88,051213,,,A*6F
$GPRMC,221302.000,A,3138.3804,S,06040.4591,W,0.51,141.88,051213,,,A*68
$GPRMC,221303.000,A,3138.3805,S,06040.4591,W,0.39,141.88,051213,,,A*66
$GPRMC,221304.000,A,3138.3806,S,06040.4591,W,0.30,141.88,051213,,,A*6B
$GPRMC,221305.000,A,3138.3807,S,06040.4591,W,0.30,141.88,051213,,,A*6B
$GPRMC,221306.000,A,3138.3807,S,06040.4590,W,0.27,141.88,051213,,,A*6F
$GPRMC,221307.000,A,3138.3808,S,06040.4589,W,0.26,141.88,051213,,,A*68
$GPRMC,221308.000,A,3138.3808,S,06040.4589,W,0.11,141.88,051213,,,A*63
$GPRMC,221309.000,A,3138.3809,S,06040.4589,W,0.04,141.88,051213,,,A*67
$GPRMC,221310.000,A,3138.3809,S,06040.4589,W,0.03,141.88,051213,,,A*68
$GPRMC,221311.000,A,3138.3809,S,06040.4589,W,0.08,141.88,051213,,,A*62
$GPRMC,221312.000,A,3138.3809,S,06040.4589,W,0.44,141.88,051213,,,A*69
$GPRMC,221313.000,A,3138.3809,S,06040.4587,W,0.77,111.47,051213,,,A*60
$GPRMC,221314.000,A,3138.3814,S,06040.4581,W,1.26,114.33,051213,,,A*6E
$GPRMC,221315.000,A,3138.3819,S,06040.4575,W,1.68,119.98,051213,,,A*6F
$GPRMC,221316.000,A,3138.3821,S,06040.4570,W,1.68,120.64,051213,,,A*6B
$GPRMC,221317.000,A,3138.3825,S,06040.4565,W,1.98,130.90,051213,,,A*6F
$GPRMC,221318.000,A,3138.3829,S,06040.4561,W,2.02,142.14,051213,,,A*61
$GPRMC,221319.000,A,3138.3833,S,06040.4559,W,2.21,146.10,051213,,,A*61
$GPRMC,221320.000,A,3138.3837,S,06040.4556,W,1.60,144.19,051213,,,A*6D
$GPRMC,221321.000,A,3138.3835,S,06040.4553,W,1.17,46.68,051213,,,A*5E
$GPRMC,221322.000,A,3138.3832,S,06040.4549,W,1.80,45.86,051213,,,A*5C
$GPRMC,221323.000,A,3138.3828,S,06040.4544,W,1.95,45.42,051213,,,A*57
$GPRMC,221324.000,A,3138.3824,S,06040.4540,W,2.27,46.26,051213,,,A*53
$GPRMC,221325.000,A,3138.3819,S,06040.4534,W,2.31,49.25,051213,,,A*54
$GPRMC,221326.000,A,3138.3815,S,06040.4528,W,2.24,50.06,051213,,,A*5B
$GPRMC,221327.000,A,3138.3812,S,06040.4524,W,1.20,39.69,051213,,,A*50
$GPRMC,221328.000,A,3138.3810,S,06040.4519,W,1.84,42.21,051213,,,A*5D
$GPRMC,221329.000,A,3138.3807,S,06040.4517,W,1.22,36.91,051213,,,A*50
$GPRMC,221330.000,A,3138.3802,S,06040.4514,W,1.44,22.94,051213,,,A*5E
$GPRMC,221331.000,A,3138.3796,S,06040.4520,W,2.14,316.48,051213,,,A*69
$GPRMC,221332.000,A,3138.3789,S,06040.4523,W,3.38,317.54,051213,,,A*64
$GPRMC,221333.000,A,3138.3783,S,06040.4529,W,2.47,319.47,051213,,,A*60
$GPRMC,221334.000,A,3138.3777,S,06040.4535,W,2.73,320.85,051213,,,A*62
$GPRMC,221335.000,A,3138.3770,S,06040.4540,W,2.44,318.92,051213,,,A*6F
$GPRMC,221336.000,A,3138.3766,S,06040.4546,W,2.37,316.61,051213,,,A*6B
$GPRMC,221337.000,A,3138.3760,S,06040.4551,W,2.30,317.46,051213,,,A*69
$GPRMC,221338.000,A,3138.3757,S,06040.4557,W,1.91,315.13,051213,,,A*6E
$GPRMC,221339.000,A,3138.3757,S,06040.4563,W,2.09,310.52,051213,,,A*6A
$GPRMC,221340.000,A,3138.3760,S,06040.4569,W,2.11,304.96,051213,,,A*6E
$GPRMC,221341.000,A,3138.3764,S,06040.4574,W,2.28,298.93,051213,,,A*6C
$GPRMC,221342.000,A,3138.3769,S,06040.4580,W,2.27,292.02,051213,,,A*64
$GPRMC,221343.000,A,3138.3773,S,06040.4584,W,2.22,285.49,051213,,,A*66
$GPRMC,221344.000,A,3138.3777,S,06040.4589,W,2.20,279.82,051213,,,A*6E
$GPRMC,221345.000,A,3138.3781,S,06040.4594,W,1.99,274.32,051213,,,A*6D
$GPRMC,221346.000,A,3138.3785,S,06040.4599,W,2.03,268.94,051213,,,A*66
$GPRMC,221347.000,A,3138.3788,S,06040.4602,W,1.49,213.84,051213,,,A*6B
$GPRMC,221348.000,A,3138.3791,S,06040.4602,W,0.97,164.92,051213,,,A*6A
$GPRMC,221349.000,A,3138.3793,S,06040.4601,W,0.59,124.64,051213,,,A*65
$GPRMC,221350.000,A,3138.3793,S,06040.4599,W,0.30,124.64,051213,,,A*60
$GPRMC,221351.000,A,3138.3794,S,06040.4598,W,0.31,124.64,051213,,,A*66
$GPRMC,221352.000,A,3138.3794,S,06040.4597,W,0.28,124.64,051213,,,A*62
$GPRMC,221353.000,A,3138.3794,S,06040.4597,W,0.22,124.64,051213,,,A*69
$GPRMC,221354.000,A,3138.3794,S,06040.4598,W,0.29,124.64,051213,,,A*6A
$GPRMC,221355.000,A,3138.3795,S,06040.4599,W,0.38,124.64,051213,,,A*6B
$GPRMC,221356.000,A,3138.3795,S,06040.4600,W,0.36,124.64,051213,,,A*65
$GPRMC,221357.000,A,3138.3795,S,06040.4601,W,0.41,124.64,051213,,,A*65
$GPRMC,221358.000,A,3138.3795,S,06040.4602,W,0.31,124.64,051213,,,A*6E
$GPRMC,221359.000,A,3138.3796,S,06040.4603,W,0.22,124.64,051213,,,A*6F
$GPRMC,221400.000,A,3138.3797,S,06040.4603,W,0.20,124.64,051213,,,A*67
$GPRMC,221401.000,A,3138.3797,S,06040.4603,W,0.06,124.64,051213,,,A*62
$GPRMC,221402.000,A,3138.3797,S,06040.4603,W,0.10,124.64,051213,,,A*66
$GPRMC,221403.000,A,3138.3797,S,06040.4603,W,0.05,124.64,051213,,,A*63
$GPRMC,221404.000,A,3138.3797,S,06040.4603,W,0.17,124.64,051213,,,A*67
$GPRMC,221405.000,A,3138.3798,S,06040.4603,W,0.10,124.64,051213,,,A*6E
$GPRMC,221406.000,A,3138.3798,S,06040.4603,W,0.11,124.64,051213,,,A*6C
$GPRMC,221407.000,A,3138.3798,S,06040.4604,W,0.06,124.64,051213,,,A*6C
$GPRMC,221408.000,A,3138.3798,S,06040.4604,W,0.06,124.64,051213,,,A*63
$GPRMC,221409.000,A,3138.3798,S,06040.4604,W,0.12,124.64,051213,,,A*67
$GPRMC,221410.000,A,3138.3798,S,06040.4604,W,0.18,124.64,051213,,,A*65
$GPRMC,221411.000,A,3138.3798,S,06040.4605,W,0.23,124.64,051213,,,A*6D
$GPRMC,221412.000,A,3138.3799,S,06040.4605,W,0.25,124.64,051213,,,A*69
$GPRMC,221413.000,A,3138.3799,S,06040.4606,W,0.19,124.64,051213,,,A*64
$GPRMC,221414.000,A,3138.3799,S,06040.4607,W,0.17,124.64,051213,,,A*6C
$GPRMC,221415.000,A,3138.3800,S,06040.4606,W,0.92,130.13,051213,,,A*6B
$GPRMC,221416.000,A,3138.3804,S,06040.4597,W,1.09,119.92,051213,,,A*66
$GPRMC,221417.000,A,3138.3806,S,06040.4590,W,1.33,114.30,051213,,,A*6E
$GPRMC,221418.000,A,3138.3809,S,06040.4584,W,1.58,115.50,051213,,,A*61
$GPRMC,221419.000,A,3138.3814,S,06040.4579,W,1.89,117.93,051213,,,A*6F
$GPRMC,221420.000,A,3138.3818,S,06040.4574,W,2.74,120.63,051213,,,A*6E
$GPRMC,221421.000,A,3138.3823,S,06040.4569,W,2.77,122.87,051213,,,A*60
$GPRMC,221422.000,A,3138.3830,S,06040.4564,W,2.04,124.85,051213,,,A*6C
$GPRMC,221423.000,A,3138.3838,S,06040.4561,W,1.26,139.74,051213,,,A*61
$GPRMC,221424.000,A,3138.3838,S,06040.4558,W,0.57,139.74,051213,,,A*6B
$GPRMC,221425.000,A,3138.3833,S,06040.4555,W,1.43,131.38,051213,,,A*68
$GPRMC,221426.000,A,3138.3827,S,06040.4549,W,1.93,123.72,051213,,,A*63
$GPRMC,221427.000,A,3138.3822,S,06040.4543,W,1.99,117.21,051213,,,A*66
$GPRMC,221428.000,A,3138.3817,S,06040.4537,W,2.40,110.39,051213,,,A*65
$GPRMC,221429.000,A,3138.3811,S,06040.4530,W,2.37,103.40,051213,,,A*69
$GPRMC,221430.000,A,3138.3806,S,06040.4524,W,2.29,97.34,051213,,,A*52
$GPRMC,221431.000,A,3138.3802,S,06040.4519,W,2.13,91.82,051213,,,A*5B
$GPRMC,221432.000,A,3138.3798,S,06040.4515,W,1.57,85.43,051213,,,A*53
$GPRMC,221433.000,A,3138.3795,S,06040.4515,W,0.95,334.09,051213,,,A*67
$GPRMC,221434.000,A,3138.3791,S,06040.4518,W,1.86,316.91,051213,,,A*6B
$GPRMC,221435.000,A,3138.3787,S,06040.4522,W,2.15,318.75,051213,,,A*69
$GPRMC,221436.000,A,3138.3781,S,06040.4527,W,2.15,318.41,051213,,,A*6E
$GPRMC,221437.000,A,3138.3776,S,06040.4532,W,2.31,317.86,051213,,,A*61
$GPRMC,221438.000,A,3138.3771,S,06040.4537,W,2.25,317.16,051213,,,A*60
$GPRMC,221439.000,A,3138.3765,S,06040.4541,W,2.28,318.64,051213,,,A*62
$GPRMC,221440.000,A,3138.3761,S,06040.4546,W,2.12,313.55,051213,,,A*6F
$GPRMC,221441.000,A,3138.3756,S,06040.4550,W,2.14,314.92,051213,,,A*67
$GPRMC,221442.000,A,3138.3752,S,06040.4557,W,2.16,311.22,051213,,,A*6B
$GPRMC,221443.000,A,3138.3754,S,06040.4563,W,2.22,303.73,051213,,,A*6B
$GPRMC,221444.000,A,3138.3758,S,06040.4569,W,2.41,296.61,051213,,,A*61
$GPRMC,221445.000,A,3138.3762,S,06040.4575,W,2.36,289.83,051213,,,A*66
$GPRMC,221446.000,A,3138.3767,S,06040.4580,W,2.33,223.01,051213,,,A*65
$GPRMC,221447.000,A,3138.3773,S,06040.4585,W,2.33,225.49,051213,,,A*6E
$GPRMC,221448.000,A,3138.3777,S,06040.4590,W,2.28,228.78,051213,,,A*64
$GPRMC,221449.000,A,3138.3782,S,06040.4595,W,2.11,229.02,051213,,,A*6C
$GPRMC,221450.000,A,3138.3785,S,06040.4599,W,1.82,226.81,051213,,,A*62
$GPRMC,221451.000,A,3138.3790,S,06040.4601,W,1.77,177.52,051213,,,A*66
$GPRMC,221452.000,A,3138.3793,S,06040.4600,W,0.42,177.52,051213,,,A*60
$GPRMC,221453.000,A,3138.3793,S,06040.4599,W,0.02,177.52,051213,,,A*66
$GPRMC,221454.000,A,3138.3794,S,06040.4599,W,0.06,177.52,051213,,,A*62
$GPRMC,221455.000,A,3138.3794,S,06040.4598,W,0.08,177.52,051213,,,A*6C
$GPRMC,221456.000,A,3138.3794,S,06040.4599,W,0.05,177.52,051213,,,A*63
$GPRMC,221457.000,A,3138.3794,S,06040.4599,W,0.12,177.52,051213,,,A*64
$GPRMC,221458.000,A,3138.3794,S,06040.4598,W,0.07,177.52,051213,,,A*6E
$GPRMC,221459.000,A,3138.3795,S,06040.4598,W,0.03,177.52,051213,,,A*6A
$GPRMC,221500.000,A,3138.3795,S,06040.4598,W,0.11,177.52,051213,,,A*64
$GPRMC,221501.000,A,3138.3795,S,06040.4598,W,0.09,177.52,051213,,,A*6C
$GPRMC,221502.000,A,3138.3795,S,06040.4598,W,0.15,177.52,051213,,,A*62
$GPRMC,221503.000,A,3138.3795,S,06040.4598,W,0.17,177.52,051213,,,A*61
$GPRMC,221504.000,A,3138.3796,S,06040.4598,W,0.09,177.52,051213,,,A*6A
$GPRMC,221505.000,A,3138.3796,S,06040.4598,W,0.21,177.52,051213,,,A*61
$GPRMC,221506.000,A,3138.3796,S,06040.4598,W,0.31,177.52,051213,,,A*63
$GPRMC,221507.000,A,3138.3795,S,06040.4599,W,0.25,177.52,051213,,,A*65
$GPRMC,221508.000,A,3138.3795,S,06040.4600,W,0.11,177.52,051213,,,A*6E
$GPRMC,221509.000,A,3138.3794,S,06040.4600,W,0.12,177.52,051213,,,A*6D
$GPRMC,221510.000,A,3138.3794,S,06040.4600,W,0.17,177.52,051213,,,A*60
$GPRMC,221511.000,A,3138.3794,S,06040.4599,W,0.18,177.52,051213,,,A*6D
$GPRMC,221512.000,A,3138.3795,S,06040.4599,W,0.09,177.52,051213,,,A*6F
$GPRMC,221513.000,A,3138.3795,S,06040.4599,W,0.06,177.52,051213,,,A*61
$GPRMC,221514.000,A,3138.3795,S,06040.4599,W,0.08,177.52,051213,,,A*68
$GPRMC,221515.000,A,3138.3795,S,06040.4599,W,0.29,177.52,051213,,,A*6A
$GPRMC,221516.000,A,3138.3795,S,06040.4598,W,0.49,177.52,051213,,,A*6E
$GPRMC,221517.000,A,3138.3794,S,06040.4597,W,0.62,76.64,051213,,,A*5D
$GPRMC,221518.000,A,3138.3798,S,06040.4591,W,1.29,125.16,051213,,,A*64
$GPRMC,221519.000,A,3138.3803,S,06040.4585,W,1.93,126.43,051213,,,A*6F
$GPRMC,221520.000,A,3138.3809,S,06040.4578,W,2.61,127.63,051213,,,A*60
$GPRMC,221521.000,A,3138.3815,S,06040.4572,W,3.38,129.28,051213,,,A*6A
$GPRMC,221522.000,A,3138.3817,S,06040.4564,W,2.35,130.53,051213,,,A*64
$GPRMC,221523.000,A,3138.3824,S,06040.4559,W,0.86,94.88,051213,,,A*58
$GPRMC,221524.000,A,3138.3823,S,06040.4555,W,1.42,60.71,051213,,,A*50
$GPRMC,221525.000,A,3138.3819,S,06040.4550,W,2.03,52.17,051213,,,A*5A
$GPRMC,221526.000,A,3138.3815,S,06040.4544,W,2.24,50.75,051213,,,A*53
$GPRMC,221527.000,A,3138.3810,S,06040.4538,W,2.59,44.21,051213,,,A*52
$GPRMC,221528.000,A,3138.3806,S,06040.4532,W,2.17,45.48,051213,,,A*54
$GPRMC,221529.000,A,3138.3802,S,06040.4526,W,2.56,46.80,051213,,,A*56
$GPRMC,221530.000,A,3138.3796,S,06040.4518,W,2.30,46.39,051213,,,A*53
$GPRMC,221531.000,A,3138.3792,S,06040.4513,W,1.61,44.08,051213,,,A*5A
$GPRMC,221532.000,A,3138.3787,S,06040.4513,W,1.54,327.26,051213,,,A*61
$GPRMC,221533.000,A,3138.3783,S,06040.4518,W,2.28,322.54,051213,,,A*67
$GPRMC,221534.000,A,3138.3778,S,06040.4523,W,2.49,320.16,051213,,,A*6F
$GPRMC,221535.000,A,3138.3774,S,06040.4529,W,2.50,315.33,051213,,,A*61
$GPRMC,221536.000,A,3138.3768,S,06040.4535,W,2.49,317.62,051213,,,A*6C
$GPRMC,221537.000,A,3138.3764,S,06040.4541,W,2.42,318.26,051213,,,A*66
$GPRMC,221538.000,A,3138.3758,S,06040.4546,W,2.36,317.58,051213,,,A*64
$GPRMC,221539.000,A,3138.3753,S,06040.4551,W,2.19,311.34,051213,,,A*69
$GPRMC,221540.000,A,3138.3751,S,06040.4556,W,1.44,281.04,051213,,,A*62
$GPRMC,221541.000,A,3138.3753,S,06040.4561,W,2.04,232.58,051213,,,A*63
$GPRMC,221542.000,A,3138.3756,S,06040.4567,W,2.28,229.47,051213,,,A*69
$GPRMC,221543.000,A,3138.3760,S,06040.4574,W,2.35,227.24,051213,,,A*68
$GPRMC,221544.000,A,3138.3765,S,06040.4579,W,2.34,224.04,051213,,,A*67
$GPRMC,221545.000,A,3138.3769,S,06040.4584,W,2.37,222.45,051213,,,A*68
$GPRMC,221546.000,A,3138.3774,S,06040.4590,W,2.41,222.25,051213,,,A*65
$GPRMC,221547.000,A,3138.3778,S,06040.4595,W,2.21,232.55,051213,,,A*6D
$GPRMC,221548.000,A,3138.3782,S,06040.4600,W,1.77,231.69,051213,,,A*64
$GPRMC,221549.000,A,3138.3785,S,06040.4603,W,0.80,229.54,051213,,,A*6F
$GPRMC,221550.000,A,3138.3786,S,06040.4603,W,0.19,229.54,051213,,,A*64
$GPRMC,221551.000,A,3138.3787,S,06040.4602,W,0.19,229.54,051213,,,A*65
$GPRMC,221552.000,A,3138.3787,S,06040.4602,W,0.15,229.54,051213,,,A*6A
$GPRMC,221553.000,A,3138.3787,S,06040.4603,W,0.23,229.54,051213,,,A*6F
$GPRMC,221554.000,A,3138.3787,S,06040.4604,W,0.27,229.54,051213,,,A*6B
$GPRMC,221555.000,A,3138.3786,S,06040.4605,W,0.25,229.54,051213,,,A*68
$GPRMC,221556.000,A,3138.3786,S,06040.4606,W,0.06,229.54,051213,,,A*69
