$GPRMC,204003.082,A,3138.3801,S,06040.4591,W,0.03,0.00,051213,,,A*61
$GPRMC,204005.000,A,3138.3810,S,06040.4585,W,0.08,0.00,051213,,,A*63
$GPRMC,204006.000,A,3138.3802,S,06040.4576,W,1.61,333.22,051213,,,A*62
$GPRMC,204007.000,A,3138.3800,S,06040.4575,W,0.65,313.10,051213,,,A*64
$GPRMC,204008.000,A,3138.3802,S,06040.4573,W,0.23,313.10,051213,,,A*6D
$GPRMC,204009.000,A,3138.3804,S,06040.4574,W,0.07,313.10,051213,,,A*6B
$GPRMC,204010.000,A,3138.3805,S,06040.4576,W,0.12,313.10,051213,,,A*64
$GPRMC,204011.000,A,3138.3806,S,06040.4578,W,0.15,313.10,051213,,,A*6F
$GPRMC,204012.000,A,3138.3805,S,06040.4581,W,0.10,313.10,051213,,,A*6C
$GPRMC,204013.000,A,3138.3804,S,06040.4582,W,0.07,313.10,051213,,,A*69
$GPRMC,204014.000,A,3138.3805,S,06040.4582,W,0.32,313.10,051213,,,A*69
$GPRMC,204015.000,A,3138.3805,S,06040.4581,W,0.84,79.18,051213,,,A*51
$GPRMC,204016.000,A,3138.3804,S,06040.4577,W,1.86,96.78,051213,,,A*5E
$GPRMC,204017.000,A,3138.3805,S,06040.4570,W,1.84,94.64,051213,,,A*54
$GPRMC,204018.000,A,3138.3806,S,06040.4564,W,2.08,91.02,051213,,,A*5F
$GPRMC,204019.000,A,3138.3806,S,06040.4556,W,2.07,92.07,051213,,,A*56
$GPRMC,204020.000,A,3138.3806,S,06040.4550,W,2.03,95.18,051213,,,A*57
$GPRMC,204021.000,A,3138.3807,S,06040.4544,W,1.87,95.52,051213,,,A*53
$GPRMC,204022.000,A,3138.3808,S,06040.4538,W,1.95,91.80,051213,,,A*5C
$GPRMC,204023.000,A,3138.3808,S,06040.4531,W,1.92,93.58,051213,,,A*54
$GPRMC,204024.000,A,3138.3809,S,06040.4525,W,1.68,92.81,051213,,,A*57
$GPRMC,204025.000,A,3138.3809,S,06040.4520,W,1.06,77.56,051213,,,A*5A
$GPRMC,204026.000,A,3138.3809,S,06040.4518,W,0.49,77.56,051213,,,A*58
$GPRMC,204027.000,A,3138.3808,S,06040.4518,W,0.30,77.56,051213,,,A*56
$GPRMC,204028.000,A,3138.3809,S,06040.4518,W,0.30,77.56,051213,,,A*58
$GPRMC,204029.000,A,3138.3810,S,06040.4518,W,0.05,77.56,051213,,,A*57
$GPRMC,204030.000,A,3138.3810,S,06040.4518,W,0.19,77.56,051213,,,A*52
$GPRMC,204031.000,A,3138.3807,S,06040.4518,W,1.23,3.99,051213,,,A*6D
$GPRMC,204032.000,A,3138.3802,S,06040.4518,W,2.11,0.95,051213,,,A*66
$GPRMC,204033.000,A,3138.3796,S,06040.4518,W,2.28,3.61,051213,,,A*67
$GPRMC,204034.000,A,3138.3790,S,06040.4518,W,2.12,4.17,051213,,,A*69
$GPRMC,204035.000,A,3138.3783,S,06040.4518,W,2.10,4.18,051213,,,A*67
$GPRMC,204036.000,A,3138.3777,S,06040.4517,W,2.14,2.99,051213,,,A*6B
$GPRMC,204037.000,A,3138.3771,S,06040.4517,W,2.18,2.50,051213,,,A*65
$GPRMC,204038.000,A,3138.3764,S,06040.4517,W,2.19,4.40,051213,,,A*68
$GPRMC,204039.000,A,3138.3759,S,06040.4517,W,1.83,3.11,051213,,,A*64
$GPRMC,204040.000,A,3138.3754,S,06040.4517,W,1.04,352.41,051213,,,A*6A
$GPRMC,204041.000,A,3138.3753,S,06040.4518,W,0.37,352.41,051213,,,A*62
$GPRMC,204042.000,A,3138.3754,S,06040.4518,W,0.10,352.41,051213,,,A*63
$GPRMC,204043.000,A,3138.3754,S,06040.4518,W,0.07,352.41,051213,,,A*64
$GPRMC,204044.000,A,3138.3754,S,06040.4518,W,0.06,352.41,051213,,,A*62
$GPRMC,204045.000,A,3138.3754,S,06040.4518,W,0.15,352.41,051213,,,A*61
$GPRMC,204046.000,A,3138.3754,S,06040.4519,W,1.27,271.11,051213,,,A*66
$GPRMC,204047.000,A,3138.3754,S,06040.4524,W,2.18,273.57,051213,,,A*66
$GPRMC,204048.000,A,3138.3754,S,06040.4531,W,2.20,274.27,051213,,,A*66
$GPRMC,204049.000,A,3138.3753,S,06040.4539,W,2.15,273.80,051213,,,A*64
$GPRMC,204050.000,A,3138.3753,S,06040.4546,W,2.16,273.71,051213,,,A*69
$GPRMC,204051.000,A,3138.3753,S,06040.4553,W,2.23,273.83,051213,,,A*67
$GPRMC,204052.000,A,3138.3753,S,06040.4561,W,2.22,274.17,051213,,,A*6E
$GPRMC,204053.000,A,3138.3752,S,06040.4568,W,2.06,274.40,051213,,,A*63
$GPRMC,204054.000,A,3138.3752,S,06040.4575,W,1.80,273.91,051213,,,A*6E
$GPRMC,204055.000,A,3138.3752,S,06040.4579,W,0.95,267.65,051213,,,A*68
$GPRMC,204056.000,A,3138.3753,S,06040.4581,W,0.08,267.65,051213,,,A*69
$GPRMC,204057.000,A,3138.3753,S,06040.4581,W,0.07,267.65,051213,,,A*67
$GPRMC,204058.000,A,3138.3754,S,06040.4580,W,0.05,267.65,051213,,,A*6C
$GPRMC,204059.000,A,3138.3754,S,06040.4580,W,0.07,267.65,051213,,,A*6F
$GPRMC,204100.000,A,3138.3755,S,06040.4580,W,0.31,267.65,051213,,,A*66
$GPRMC,204101.000,A,3138.3755,S,06040.4579,W,0.24,267.65,051213,,,A*65
$GPRMC,204102.000,A,3138.3756,S,06040.4579,W,1.31,174.71,051213,,,A*64
$GPRMC,204103.000,A,3138.3761,S,06040.4579,W,2.01,182.74,051213,,,A*6D
$GPRMC,204104.000,A,3138.3766,S,06040.4579,W,2.03,184.90,051213,,,A*63
$GPRMC,204105.000,A,3138.3773,S,06040.4579,W,2.10,183.84,051213,,,A*66
$GPRMC,204106.000,A,3138.3779,S,06040.4579,W,2.10,181.07,051213,,,A*66
$GPRMC,204107.000,A,3138.3784,S,06040.4579,W,2.09,181.99,051213,,,A*6A
$GPRMC,204108.000,A,3138.3790,S,06040.4579,W,2.02,183.21,051213,,,A*6A
$GPRMC,204109.000,A,3138.3795,S,06040.4579,W,2.04,183.09,051213,,,A*62
$GPRMC,204110.000,A,3138.3801,S,06040.4579,W,1.83,182.21,051213,,,A*6F
$GPRMC,204111.000,A,3138.3805,S,06040.4579,W,1.23,177.54,051213,,,A*68
$GPRMC,204112.000,A,3138.3807,S,06040.4578,W,0.32,177.54,051213,,,A*69
$GPRMC,204113.000,A,3138.3807,S,06040.4578,W,0.34,177.54,051213,,,A*6E
$GPRMC,204114.000,A,3138.3807,S,06040.4578,W,0.13,177.54,051213,,,A*6C
$GPRMC,204115.000,A,3138.3807,S,06040.4577,W,0.09,177.54,051213,,,A*69
$GPRMC,204116.000,A,3138.3807,S,06040.4577,W,0.07,177.54,051213,,,A*64
$GPRMC,204117.000,A,3138.3807,S,06040.4577,W,0.01,177.54,051213,,,A*63
$GPRMC,204118.000,A,3138.3807,S,06040.4577,W,0.05,177.54,051213,,,A*68
$GPRMC,204119.000,A,3138.3807,S,06040.4577,W,0.03,177.54,051213,,,A*6F
$GPRMC,204120.000,A,3138.3807,S,06040.4577,W,0.02,177.54,051213,,,A*64
$GPRMC,204121.000,A,3138.3807,S,06040.4577,W,0.02,177.54,051213,,,A*65
$GPRMC,204122.000,A,3138.3807,S,06040.4577,W,0.15,177.54,051213,,,A*60
$GPRMC,204123.000,A,3138.3806,S,06040.4577,W,0.07,177.54,051213,,,A*63
$GPRMC,204124.000,A,3138.3806,S,06040.4577,W,0.06,177.54,051213,,,A*65
$GPRMC,204125.000,A,3138.3806,S,06040.4578,W,0.13,177.54,051213,,,A*6F
$GPRMC,204126.000,A,3138.3806,S,06040.4578,W,0.07,177.54,051213,,,A*69
$GPRMC,204127.000,A,3138.3806,S,06040.4578,W,0.11,177.54,051213,,,A*6F
$GPRMC,204128.000,A,3138.3806,S,06040.4578,W,0.06,177.54,051213,,,A*66
$GPRMC,204129.000,A,3138.3805,S,06040.4578,W,0.07,177.54,051213,,,A*65
$GPRMC,204130.000,A,3138.3806,S,06040.4578,W,0.09,177.54,051213,,,A*60
$GPRMC,204131.000,A,3138.3806,S,06040.4577,W,0.14,177.54,051213,,,A*62
$GPRMC,204132.000,A,3138.3806,S,06040.4577,W,0.08,177.54,051213,,,A*6C
$GPRMC,204133.000,A,3138.3806,S,06040.4577,W,0.18,177.54,051213,,,A*6C
$GPRMC,204134.000,A,3138.3806,S,06040.4577,W,0.07,177.54,051213,,,A*65
$GPRMC,204135.000,A,3138.3806,S,06040.4578,W,0.02,177.54,051213,,,A*6E
$GPRMC,204136.000,A,3138.3806,S,06040.4577,W,0.03,177.54,051213,,,A*63
$GPRMC,204137.000,A,3138.3806,S,06040.4578,W,0.09,177.54,051213,,,A*67
$GPRMC,204138.000,A,3138.3806,S,06040.4578,W,0.08,177.54,051213,,,A*69
$GPRMC,204139.000,A,3138.3806,S,06040.4578,W,0.01,177.54,051213,,,A*61
$GPRMC,204140.000,A,3138.3806,S,06040.4578,W,0.08,177.54,051213,,,A*66
$GPRMC,204141.000,A,3138.3805,S,06040.4578,W,0.08,177.54,051213,,,A*64
$GPRMC,204142.000,A,3138.3805,S,06040.4577,W,0.13,177.54,051213,,,A*62
$GPRMC,204143.000,A,3138.3805,S,06040.4577,W,0.19,177.54,051213,,,A*69
$GPRMC,204144.000,A,3138.3806,S,06040.4576,W,0.18,177.54,051213,,,A*6D
$GPRMC,204145.000,A,3138.3806,S,06040.4576,W,0.17,177.54,051213,,,A*63
$GPRMC,204146.000,A,3138.3806,S,06040.4575,W,0.20,177.54,051213,,,A*67
$GPRMC,204147.000,A,3138.3806,S,06040.4575,W,0.20,177.54,051213,,,A*66
$GPRMC,204148.000,A,3138.3806,S,06040.4574,W,0.19,177.54,051213,,,A*62
$GPRMC,204149.000,A,3138.3806,S,06040.4573,W,0.14,177.54,051213,,,A*69
$GPRMC,204150.000,A,3138.3805,S,06040.4573,W,0.06,177.54,051213,,,A*61
$GPRMC,204151.000,A,3138.3805,S,06040.4573,W,0.10,177.54,051213,,,A*67
$GPRMC,204152.000,A,3138.3805,S,06040.4573,W,0.12,177.54,051213,,,A*66
$GPRMC,204153.000,A,3138.3805,S,06040.4573,W,0.20,177.54,051213,,,A*66
$GPRMC,204154.000,A,3138.3804,S,06040.4572,W,0.27,177.54,051213,,,A*66
$GPRMC,204155.000,A,3138.3805,S,06040.4572,W,0.12,177.54,051213,,,A*60
$GPRMC,204156.000,A,3138.3805,S,06040.4571,W,0.09,177.54,051213,,,A*6A
$GPRMC,204157.000,A,3138.3805,S,06040.4571,W,0.07,177.54,051213,,,A*65
$GPRMC,204158.000,A,3138.3805,S,06040.4571,W,0.15,177.54,051213,,,A*69
$GPRMC,204159.000,A,3138.3805,S,06040.4571,W,0.19,177.54,051213,,,A*64
$GPRMC,204200.000,A,3138.3805,S,06040.4572,W,0.11,177.54,051213,,,A*60
$GPRMC,204201.000,A,3138.3806,S,06040.4571,W,0.07,177.54,051213,,,A*66
$GPRMC,204202.000,A,3138.3805,S,06040.4571,W,0.14,177.54,051213,,,A*64
$GPRMC,204203.000,A,3138.3805,S,06040.4571,W,0.11,177.54,051213,,,A*60
$GPRMC,204204.000,A,3138.3805,S,06040.4571,W,0.06,177.54,051213,,,A*61
$GPRMC,204205.000,A,3138.3805,S,06040.4571,W,0.08,177.54,051213,,,A*6E
$GPRMC,204206.000,A,3138.3805,S,06040.4571,W,0.03,177.54,051213,,,A*66
$GPRMC,204207.000,A,3138.3805,S,06040.4571,W,0.08,177.54,051213,,,A*6C
$GPRMC,204208.000,A,3138.3805,S,06040.4571,W,0.11,177.54,051213,,,A*6B
$GPRMC,204209.000,A,3138.3805,S,06040.4571,W,0.05,177.54,051213,,,A*6F
$GPRMC,204210.000,A,3138.3805,S,06040.4571,W,0.05,177.54,051213,,,A*67
$GPRMC,204211.000,A,3138.3805,S,06040.4570,W,0.11,177.54,051213,,,A*62
$GPRMC,204212.000,A,3138.3805,S,06040.4570,W,0.21,177.54,051213,,,A*62
$GPRMC,204213.000,A,3138.3805,S,06040.4570,W,0.07,177.54,051213,,,A*67
$GPRMC,204214.000,A,3138.3806,S,06040.4570,W,0.14,177.54,051213,,,A*61
$GPRMC,204215.000,A,3138.3806,S,06040.4570,W,0.09,177.54,051213,,,A*6C
$GPRMC,204216.000,A,3138.3806,S,06040.4570,W,0.07,177.54,051213,,,A*61
$GPRMC,204217.000,A,3138.3806,S,06040.4570,W,0.07,177.54,051213,,,A*60
$GPRMC,204218.000,A,3138.3806,S,06040.4569,W,0.10,177.54,051213,,,A*61
$GPRMC,204219.000,A,3138.3806,S,06040.4569,W,0.96,93.16,051213,,,A*53
$GPRMC,204220.000,A,3138.3806,S,06040.4565,W,1.76,84.58,051213,,,A*56
$GPRMC,204221.000,A,3138.3806,S,06040.4558,W,2.35,86.23,051213,,,A*53
$GPRMC,204222.000,A,3138.3806,S,06040.4551,W,2.37,86.89,051213,,,A*5B
$GPRMC,204223.000,A,3138.3808,S,06040.4545,W,2.42,87.93,051213,,,A*59
$GPRMC,204224.000,A,3138.3808,S,06040.4538,W,2.16,90.66,051213,,,A*59
$GPRMC,204225.000,A,3138.3808,S,06040.4530,W,2.23,91.82,051213,,,A*5D
$GPRMC,204226.000,A,3138.3809,S,06040.4524,W,1.97,92.51,051213,,,A*5B
$GPRMC,204227.000,A,3138.3811,S,06040.4517,W,2.01,94.06,051213,,,A*5B
$GPRMC,204228.000,A,3138.3813,S,06040.4510,W,1.33,94.75,051213,,,A*57
$GPRMC,204229.000,A,3138.3813,S,06040.4511,W,0.19,95.04,051213,,,A*59
$GPRMC,204230.000,A,3138.3813,S,06040.4514,W,0.49,95.40,051213,,,A*51
$GPRMC,204231.000,A,3138.3813,S,06040.4517,W,0.46,95.40,051213,,,A*5C
$GPRMC,204232.000,A,3138.3812,S,06040.4519,W,0.24,95.40,051213,,,A*54
$GPRMC,204233.000,A,3138.3811,S,06040.4520,W,0.20,95.40,051213,,,A*58
$GPRMC,204234.000,A,3138.3811,S,06040.4520,W,0.24,95.40,051213,,,A*5B
$GPRMC,204235.000,A,3138.3810,S,06040.4520,W,0.91,350.89,051213,,,A*6A
$GPRMC,204236.000,A,3138.3804,S,06040.4520,W,1.34,2.31,051213,,,A*65
$GPRMC,204237.000,A,3138.3797,S,06040.4519,W,1.75,2.97,051213,,,A*62
$GPRMC,204238.000,A,3138.3791,S,06040.4519,W,2.03,1.46,051213,,,A*66
$GPRMC,204239.000,A,3138.3785,S,06040.4519,W,2.28,2.72,051213,,,A*6F
$GPRMC,204240.000,A,3138.3778,S,06040.4519,W,2.25,3.18,051213,,,A*63
$GPRMC,204241.000,A,3138.3771,S,06040.4518,W,2.29,2.71,051213,,,A*68
$GPRMC,204242.000,A,3138.3765,S,06040.4519,W,1.95,2.15,051213,,,A*69
$GPRMC,204243.000,A,3138.3759,S,06040.4518,W,1.67,2.54,051213,,,A*6E
$GPRMC,204244.000,A,3138.3756,S,06040.4519,W,0.59,342.16,051213,,,A*6A
$GPRMC,204245.000,A,3138.3756,S,06040.4519,W,0.37,342.16,051213,,,A*63
$GPRMC,204246.000,A,3138.3757,S,06040.4519,W,0.05,342.16,051213,,,A*60
$GPRMC,204247.000,A,3138.3757,S,06040.4519,W,0.06,342.16,051213,,,A*62
$GPRMC,204248.000,A,3138.3758,S,06040.4518,W,0.03,342.16,051213,,,A*66
$GPRMC,204249.000,A,3138.3758,S,06040.4518,W,0.39,342.16,051213,,,A*6E
$GPRMC,204250.000,A,3138.3757,S,06040.4519,W,1.64,269.41,051213,,,A*6B
$GPRMC,204251.000,A,3138.3758,S,06040.4526,W,2.40,275.30,051213,,,A*67
$GPRMC,204252.000,A,3138.3757,S,06040.4534,W,2.36,273.71,051213,,,A*6A
$GPRMC,204253.000,A,3138.3757,S,06040.4541,W,2.32,272.51,051213,,,A*6E
$GPRMC,204254.000,A,3138.3758,S,06040.4552,W,2.35,273.16,051213,,,A*61
$GPRMC,204255.000,A,3138.3759,S,06040.4561,W,2.31,273.12,051213,,,A*61
$GPRMC,204256.000,A,3138.3759,S,06040.4569,W,2.28,274.13,051213,,,A*64
$GPRMC,204257.000,A,3138.3760,S,06040.4577,W,1.91,274.86,051213,,,A*6D
$GPRMC,204258.000,A,3138.3763,S,06040.4581,W,1.86,178.28,051213,,,A*65
$GPRMC,204259.000,A,3138.3763,S,06040.4584,W,1.24,291.32,051213,,,A*66
$GPRMC,204300.000,A,3138.3762,S,06040.4585,W,0.34,291.32,051213,,,A*6B
$GPRMC,204301.000,A,3138.3760,S,06040.4585,W,0.35,291.32,051213,,,A*69
$GPRMC,204302.000,A,3138.3759,S,06040.4584,W,0.36,291.32,051213,,,A*62
$GPRMC,204303.000,A,3138.3760,S,06040.4583,W,0.06,291.32,051213,,,A*6D
$GPRMC,204304.000,A,3138.3760,S,06040.4583,W,0.49,291.32,051213,,,A*61
$GPRMC,204305.000,A,3138.3761,S,06040.4583,W,1.71,185.18,051213,,,A*65
$GPRMC,204306.000,A,3138.3766,S,06040.4583,W,2.12,186.30,051213,,,A*6E
$GPRMC,204307.000,A,3138.3772,S,06040.4583,W,2.14,185.71,051213,,,A*6A
$GPRMC,204308.000,A,3138.3778,S,06040.4582,W,2.32,182.71,051213,,,A*6D
$GPRMC,204309.000,A,3138.3786,S,06040.4583,W,3.42,183.67,051213,,,A*6C
$GPRMC,204310.000,A,3138.3793,S,06040.4584,W,2.17,183.06,051213,,,A*61
$GPRMC,204311.000,A,3138.3799,S,06040.4584,W,2.81,183.64,051213,,,A*61
$GPRMC,204312.000,A,3138.3805,S,06040.4584,W,1.77,184.63,051213,,,A*62
$GPRMC,204313.000,A,3138.3811,S,06040.4583,W,2.14,184.60,051213,,,A*64
$GPRMC,204314.000,A,3138.3812,S,06040.4581,W,0.21,184.66,051213,,,A*60
$GPRMC,204315.000,A,3138.3812,S,06040.4580,W,0.24,184.81,051213,,,A*6C
$GPRMC,204316.000,A,3138.3812,S,06040.4580,W,0.30,184.81,051213,,,A*6A
$GPRMC,204317.000,A,3138.3812,S,06040.4580,W,0.28,184.81,051213,,,A*62
$GPRMC,204318.000,A,3138.3811,S,06040.4581,W,0.21,184.81,051213,,,A*66
$GPRMC,204319.000,A,3138.3811,S,06040.4581,W,0.10,184.81,051213,,,A*65
$GPRMC,204320.000,A,3138.3810,S,06040.4580,W,0.06,184.81,051213,,,A*68
$GPRMC,204321.000,A,3138.3810,S,06040.4580,W,0.05,184.81,051213,,,A*6A
$GPRMC,204322.000,A,3138.3810,S,06040.4580,W,0.20,184.81,051213,,,A*6E
$GPRMC,204323.000,A,3138.3811,S,06040.4581,W,0.13,184.81,051213,,,A*6F
$GPRMC,204324.000,A,3138.3811,S,06040.4581,W,0.13,184.81,051213,,,A*68
$GPRMC,204325.000,A,3138.3811,S,06040.4581,W,0.02,184.81,051213,,,A*69
$GPRMC,204326.000,A,3138.3811,S,06040.4581,W,0.14,184.81,051213,,,A*6D
$GPRMC,204327.000,A,3138.3811,S,06040.4582,W,0.08,184.81,051213,,,A*62
$GPRMC,204328.000,A,3138.3811,S,06040.4582,W,0.09,184.81,051213,,,A*6C
$GPRMC,204329.000,A,3138.3811,S,06040.4582,W,0.20,184.81,051213,,,A*66
$GPRMC,204330.000,A,3138.3811,S,06040.4581,W,0.13,184.81,051213,,,A*6D
$GPRMC,204331.000,A,3138.3811,S,06040.4581,W,0.18,184.81,051213,,,A*67
$GPRMC,204332.000,A,3138.3811,S,06040.4580,W,0.10,184.81,051213,,,A*6D
$GPRMC,204333.000,A,3138.3810,S,06040.4580,W,0.08,184.81,051213,,,A*64
$GPRMC,204334.000,A,3138.3810,S,06040.4581,W,0.09,184.81,051213,,,A*63
$GPRMC,204335.000,A,3138.3810,S,06040.4581,W,0.07,184.81,051213,,,A*6C
$GPRMC,204336.000,A,3138.3810,S,06040.4581,W,0.09,184.81,051213,,,A*61
$GPRMC,204337.000,A,3138.3810,S,06040.4581,W,0.22,184.81,051213,,,A*69
$GPRMC,204338.000,A,3138.3809,S,06040.4581,W,0.21,184.81,051213,,,A*6D
$GPRMC,204339.000,A,3138.3809,S,06040.4580,W,0.09,184.81,051213,,,A*67
$GPRMC,204340.000,A,3138.3809,S,06040.4580,W,0.09,184.81,051213,,,A*69
$GPRMC,204341.000,A,3138.3809,S,06040.4580,W,0.03,184.81,051213,,,A*62
$GPRMC,204342.000,A,3138.3809,S,06040.4580,W,0.00,184.81,051213,,,A*62
$GPRMC,204343.000,A,3138.3809,S,06040.4580,W,0.10,184.81,051213,,,A*62
$GPRMC,204344.000,A,3138.3808,S,06040.4580,W,0.05,184.81,051213,,,A*60
$GPRMC,204345.000,A,3138.3808,S,06040.4580,W,0.14,184.81,051213,,,A*61
$GPRMC,204346.000,A,3138.3808,S,06040.4579,W,0.10,184.81,051213,,,A*60
$GPRMC,204347.000,A,3138.3808,S,06040.4579,W,0.07,184.81,051213,,,A*67
$GPRMC,204348.000,A,3138.3808,S,06040.4579,W,0.01,184.81,051213,,,A*6E
$GPRMC,204349.000,A,3138.3808,S,06040.4579,W,0.06,184.81,051213,,,A*68
$GPRMC,204350.000,A,3138.3808,S,06040.4579,W,0.01,184.81,051213,,,A*67
$GPRMC,204351.000,A,3138.3808,S,06040.4579,W,0.04,184.81,051213,,,A*63
$GPRMC,204352.000,A,3138.3808,S,06040.4579,W,0.09,184.81,051213,,,A*6D
$GPRMC,204353.000,A,3138.3808,S,06040.4579,W,0.20,184.81,051213,,,A*67
$GPRMC,204354.000,A,3138.3808,S,06040.4579,W,0.12,184.81,051213,,,A*61
$GPRMC,204355.000,A,3138.3808,S,06040.4578,W,0.06,184.81,051213,,,A*64
$GPRMC,204356.000,A,3138.3808,S,06040.4578,W,0.11,184.81,051213,,,A*61
$GPRMC,204357.000,A,3138.3808,S,06040.4578,W,0.20,184.81,051213,,,A*62
$GPRMC,204358.000,A,3138.3808,S,06040.4579,W,0.17,184.81,051213,,,A*68
$GPRMC,204359.000,A,3138.3808,S,06040.4579,W,0.06,184.81,051213,,,A*69
$GPRMC,204400.000,A,3138.3808,S,06040.4579,W,0.04,184.81,051213,,,A*60
$GPRMC,204401.000,A,3138.3808,S,06040.4580,W,0.10,184.81,051213,,,A*62
$GPRMC,204402.000,A,3138.3808,S,06040.4580,W,0.05,184.81,051213,,,A*65
$GPRMC,204403.000,A,3138.3808,S,06040.4580,W,0.03,184.81,051213,,,A*62
$GPRMC,204404.000,A,3138.3808,S,06040.4580,W,0.05,184.81,051213,,,A*63
$GPRMC,204405.000,A,3138.3808,S,06040.4580,W,0.07,184.81,051213,,,A*60
$GPRMC,204406.000,A,3138.3808,S,06040.4580,W,0.05,184.81,051213,,,A*61
$GPRMC,204407.000,A,3138.3808,S,06040.4579,W,0.13,184.81,051213,,,A*61
$GPRMC,204408.000,A,3138.3808,S,06040.4579,W,0.19,184.81,051213,,,A*64
$GPRMC,204409.000,A,3138.3809,S,06040.4579,W,0.15,184.81,051213,,,A*68
$GPRMC,204410.000,A,3138.3809,S,06040.4578,W,0.12,184.81,051213,,,A*66
$GPRMC,204411.000,A,3138.3809,S,06040.4578,W,0.20,184.81,051213,,,A*66
$GPRMC,204412.000,A,3138.3809,S,06040.4577,W,0.16,184.81,051213,,,A*6F
$GPRMC,204413.000,A,3138.3809,S,06040.4577,W,0.78,177.78,051213,,,A*6C
$GPRMC,204414.000,A,3138.3809,S,06040.4568,W,1.37,94.15,051213,,,A*58
$GPRMC,204415.000,A,3138.3810,S,06040.4560,W,1.87,96.31,051213,,,A*56
$GPRMC,204416.000,A,3138.3811,S,06040.4553,W,1.92,96.28,051213,,,A*58
$GPRMC,204417.000,A,3138.3811,S,06040.4543,W,2.51,94.90,051213,,,A*55
$GPRMC,204418.000,A,3138.3813,S,06040.4534,W,2.29,93.16,051213,,,A*5E
$GPRMC,204419.000,A,3138.3815,S,06040.4525,W,2.25,94.29,051213,,,A*5E
$GPRMC,204420.000,A,3138.3816,S,06040.4517,W,2.19,94.15,051213,,,A*56
$GPRMC,204421.000,A,3138.3818,S,06040.4510,W,1.93,93.58,051213,,,A*51
$GPRMC,204422.000,A,3138.3817,S,06040.4507,W,1.39,91.12,051213,,,A*57
$GPRMC,204423.000,A,3138.3812,S,06040.4507,W,1.91,2.53,051213,,,A*6E
$GPRMC,204424.000,A,3138.3806,S,06040.4508,W,2.12,1.72,051213,,,A*6B
$GPRMC,204425.000,A,3138.3799,S,06040.4509,W,2.11,2.39,051213,,,A*6D
$GPRMC,204426.000,A,3138.3793,S,06040.4510,W,2.19,2.53,051213,,,A*68
$GPRMC,204427.000,A,3138.3786,S,06040.4510,W,2.20,1.22,051213,,,A*62
$GPRMC,204428.000,A,3138.3779,S,06040.4511,W,2.27,1.26,051213,,,A*6F
$GPRMC,204429.000,A,3138.3772,S,06040.4512,W,2.31,2.30,051213,,,A*65
$GPRMC,204430.000,A,3138.3765,S,06040.4512,W,1.98,2.22,051213,,,A*68
$GPRMC,204431.000,A,3138.3760,S,06040.4513,W,1.29,345.71,051213,,,A*61
$GPRMC,204432.000,A,3138.3758,S,06040.4514,W,0.49,345.71,051213,,,A*69
$GPRMC,204433.000,A,3138.3758,S,06040.4518,W,1.44,338.39,051213,,,A*6E
$GPRMC,204434.000,A,3138.3758,S,06040.4524,W,2.01,331.78,051213,,,A*68
$GPRMC,204435.000,A,3138.3759,S,06040.4531,W,2.07,325.89,051213,,,A*61
$GPRMC,204436.000,A,3138.3759,S,06040.4538,W,2.14,320.93,051213,,,A*67
$GPRMC,204437.000,A,3138.3758,S,06040.4546,W,2.10,315.18,051213,,,A*6F
$GPRMC,204438.000,A,3138.3758,S,06040.4553,W,2.13,310.62,051213,,,A*6F
$GPRMC,204439.000,A,3138.3758,S,06040.4560,W,2.15,306.51,051213,,,A*6F
$GPRMC,204440.000,A,3138.3758,S,06040.4567,W,2.16,302.64,051213,,,A*67
$GPRMC,204441.000,A,3138.3758,S,06040.4573,W,1.61,267.90,051213,,,A*69
$GPRMC,204442.000,A,3138.3759,S,06040.4577,W,0.99,213.24,051213,,,A*65
$GPRMC,204443.000,A,3138.3763,S,06040.4578,W,1.71,177.19,051213,,,A*6A
$GPRMC,204444.000,A,3138.3769,S,06040.4578,W,2.28,179.00,051213,,,A*6E
$GPRMC,204445.000,A,3138.3776,S,06040.4578,W,2.31,180.52,051213,,,A*68
$GPRMC,204446.000,A,3138.3782,S,06040.4578,W,2.13,187.78,051213,,,A*6F
$GPRMC,204447.000,A,3138.3788,S,06040.4578,W,2.31,187.08,051213,,,A*63
$GPRMC,204448.000,A,3138.3795,S,06040.4578,W,2.13,186.54,051213,,,A*68
$GPRMC,204449.000,A,3138.3802,S,06040.4578,W,2.13,185.07,051213,,,A*6D
$GPRMC,204450.000,A,3138.3808,S,06040.4579,W,2.12,184.14,051213,,,A*6C
$GPRMC,204451.000,A,3138.3813,S,06040.4579,W,1.52,183.62,051213,,,A*66
$GPRMC,204452.000,A,3138.3814,S,06040.4577,W,0.15,183.09,051213,,,A*63
$GPRMC,204453.000,A,3138.3815,S,06040.4575,W,0.48,182.77,051213,,,A*61
$GPRMC,204454.000,A,3138.3815,S,06040.4574,W,0.09,182.67,051213,,,A*63
$GPRMC,204455.000,A,3138.3816,S,06040.4573,W,0.06,182.67,051213,,,A*69
$GPRMC,204456.000,A,3138.3815,S,06040.4573,W,0.07,182.67,051213,,,A*68
$GPRMC,204457.000,A,3138.3815,S,06040.4573,W,0.04,182.67,051213,,,A*6A
$GPRMC,204458.000,A,3138.3815,S,06040.4573,W,0.02,182.67,051213,,,A*63
$GPRMC,204459.000,A,3138.3815,S,06040.4573,W,0.09,182.67,051213,,,A*69
$GPRMC,204500.000,A,3138.3815,S,06040.4573,W,0.07,182.67,051213,,,A*6A
$GPRMC,204501.000,A,3138.3815,S,06040.4573,W,0.11,182.67,051213,,,A*6C
$GPRMC,204502.000,A,3138.3815,S,06040.4574,W,0.12,182.67,051213,,,A*6B
$GPRMC,204503.000,A,3138.3815,S,06040.4573,W,0.08,182.67,051213,,,A*66
$GPRMC,204504.000,A,3138.3815,S,06040.4573,W,0.27,182.67,051213,,,A*6C
$GPRMC,204505.000,A,3138.3816,S,06040.4573,W,0.20,182.67,051213,,,A*69
$GPRMC,204506.000,A,3138.3816,S,06040.4572,W,0.25,182.67,051213,,,A*6E
$GPRMC,204507.000,A,3138.3816,S,06040.4571,W,0.11,182.67,051213,,,A*6B
$GPRMC,204508.000,A,3138.3816,S,06040.4571,W,0.04,182.67,051213,,,A*60
$GPRMC,204509.000,A,3138.3816,S,06040.4571,W,0.05,182.67,051213,,,A*60
$GPRMC,204510.000,A,3138.3816,S,06040.4571,W,0.07,182.67,051213,,,A*6A
$GPRMC,204511.000,A,3138.3816,S,06040.4571,W,0.05,182.67,051213,,,A*69
$GPRMC,204512.000,A,3138.3816,S,06040.4571,W,0.03,182.67,051213,,,A*6C
$GPRMC,204513.000,A,3138.3816,S,06040.4571,W,0.07,182.67,051213,,,A*69
$GPRMC,204514.000,A,3138.3816,S,06040.4570,W,0.17,182.67,051213,,,A*6E
$GPRMC,204515.000,A,3138.3816,S,06040.4570,W,0.15,182.67,051213,,,A*6D
$GPRMC,204516.000,A,3138.3816,S,06040.4569,W,0.12,182.67,051213,,,A*61
$GPRMC,204517.000,A,3138.3815,S,06040.4569,W,0.05,182.67,051213,,,A*65
$GPRMC,204518.000,A,3138.3815,S,06040.4569,W,0.09,182.67,051213,,,A*66
$GPRMC,204519.000,A,3138.3815,S,06040.4569,W,0.03,182.67,051213,,,A*6D
$GPRMC,204520.000,A,3138.3815,S,06040.4569,W,0.07,182.67,051213,,,A*63
$GPRMC,204521.000,A,3138.3815,S,06040.4569,W,0.17,182.67,051213,,,A*63
$GPRMC,204522.000,A,3138.3815,S,06040.4569,W,0.07,182.67,051213,,,A*61
$GPRMC,204523.000,A,3138.3816,S,06040.4569,W,0.07,182.67,051213,,,A*63
$GPRMC,204524.000,A,3138.3815,S,06040.4569,W,0.04,182.67,051213,,,A*64
$GPRMC,204525.000,A,3138.3815,S,06040.4570,W,0.06,182.67,051213,,,A*6F
$GPRMC,204526.000,A,3138.3815,S,06040.4569,W,0.20,182.67,051213,,,A*60
$GPRMC,204527.000,A,3138.3815,S,06040.4569,W,0.55,182.67,051213,,,A*63
$GPRMC,204528.000,A,3138.3816,S,06040.4567,W,0.04,182.67,051213,,,A*65
$GPRMC,204529.000,A,3138.3816,S,06040.4567,W,0.54,182.67,051213,,,A*61
$GPRMC,204530.000,A,3138.3816,S,06040.4569,W,0.70,290.01,051213,,,A*61
$GPRMC,204531.000,A,3138.3815,S,06040.4573,W,0.67,292.09,051213,,,A*64
$GPRMC,204532.000,A,3138.3816,S,06040.4575,W,0.04,292.09,051213,,,A*67
$GPRMC,204533.000,A,3138.3816,S,06040.4577,W,0.04,292.09,051213,,,A*64
$GPRMC,204534.000,A,3138.3816,S,06040.4578,W,0.05,292.09,051213,,,A*6D
$GPRMC,204535.000,A,3138.3816,S,06040.4579,W,0.11,292.09,051213,,,A*68
$GPRMC,204536.000,A,3138.3816,S,06040.4578,W,0.18,292.09,051213,,,A*63
$GPRMC,204537.000,A,3138.3816,S,06040.4577,W,0.12,292.09,051213,,,A*67
$GPRMC,204538.000,A,3138.3816,S,06040.4577,W,0.03,292.09,051213,,,A*68
$GPRMC,204539.000,A,3138.3816,S,06040.4577,W,0.06,292.09,051213,,,A*6C
$GPRMC,204540.000,A,3138.3816,S,06040.4577,W,0.10,292.09,051213,,,A*65
$GPRMC,204541.000,A,3138.3816,S,06040.4577,W,0.14,292.09,051213,,,A*60
$GPRMC,204542.000,A,3138.3816,S,06040.4576,W,0.09,292.09,051213,,,A*6E
$GPRMC,204543.000,A,3138.3816,S,06040.4576,W,0.13,292.09,051213,,,A*64
$GPRMC,204544.000,A,3138.3816,S,06040.4576,W,0.08,292.09,051213,,,A*69
$GPRMC,204545.000,A,3138.3815,S,06040.4575,W,0.06,292.09,051213,,,A*66
$GPRMC,204546.000,A,3138.3815,S,06040.4575,W,0.21,292.09,051213,,,A*60
$GPRMC,204547.000,A,3138.3815,S,06040.4575,W,0.99,95.71,051213,,,A*58
$GPRMC,204548.000,A,3138.3816,S,06040.4570,W,1.97,93.19,051213,,,A*56
$GPRMC,204549.000,A,3138.3817,S,06040.4563,W,2.33,93.41,051213,,,A*54
$GPRMC,204550.000,A,3138.3816,S,06040.4555,W,2.34,93.51,051213,,,A*5E
$GPRMC,204551.000,A,3138.3818,S,06040.4547,W,2.15,93.47,051213,,,A*56
$GPRMC,204552.000,A,3138.3819,S,06040.4539,W,2.21,94.44,051213,,,A*5E
$GPRMC,204553.000,A,3138.3820,S,06040.4532,W,2.18,94.54,051213,,,A*55
$GPRMC,204554.000,A,3138.3820,S,06040.4524,W,2.24,95.17,051213,,,A*5C
$GPRMC,204555.000,A,3138.3821,S,06040.4519,W,1.89,88.22,051213,,,A*5C
$GPRMC,204556.000,A,3138.3819,S,06040.4518,W,1.04,20.99,051213,,,A*52
$GPRMC,204557.000,A,3138.3814,S,06040.4519,W,2.02,358.92,051213,,,A*6D
$GPRMC,204558.000,A,3138.3807,S,06040.4520,W,2.29,2.44,051213,,,A*64
$GPRMC,204559.000,A,3138.3801,S,06040.4521,W,2.25,2.53,051213,,,A*68
$GPRMC,204600.000,A,3138.3794,S,06040.4521,W,2.26,2.47,051213,,,A*62
$GPRMC,204601.000,A,3138.3787,S,06040.4521,W,2.23,3.29,051213,,,A*6D
$GPRMC,204602.000,A,3138.3780,S,06040.4521,W,2.30,3.49,051213,,,A*6D
$GPRMC,204603.000,A,3138.3773,S,06040.4521,W,2.29,2.73,051213,,,A*60
$GPRMC,204604.000,A,3138.3766,S,06040.4521,W,2.02,3.08,051213,,,A*67
$GPRMC,204605.000,A,3138.3762,S,06040.4522,W,0.74,322.16,051213,,,A*6D
$GPRMC,204606.000,A,3138.3760,S,06040.4525,W,1.45,273.12,051213,,,A*69
$GPRMC,204607.000,A,3138.3760,S,06040.4531,W,2.07,272.87,051213,,,A*65
$GPRMC,204608.000,A,3138.3760,S,06040.4538,W,2.05,273.07,051213,,,A*68
$GPRMC,204609.000,A,3138.3759,S,06040.4545,W,2.06,275.60,051213,,,A*6D
$GPRMC,204610.000,A,3138.3759,S,06040.4552,W,2.06,273.88,051213,,,A*63
$GPRMC,204611.000,A,3138.3759,S,06040.4558,W,2.09,273.18,051213,,,A*6E
$GPRMC,204612.000,A,3138.3759,S,06040.4566,W,2.15,273.37,051213,,,A*60
$GPRMC,204613.000,A,3138.3759,S,06040.4573,W,2.15,273.59,051213,,,A*6D
$GPRMC,204614.000,A,3138.3759,S,06040.4579,W,1.77,274.99,051213,,,A*6C
$GPRMC,204615.000,A,3138.3760,S,06040.4583,W,0.97,238.77,051213,,,A*65
$GPRMC,204616.000,A,3138.3763,S,06040.4585,W,1.25,180.26,051213,,,A*6F
$GPRMC,204617.000,A,3138.3768,S,06040.4585,W,1.91,183.59,051213,,,A*61
$GPRMC,204618.000,A,3138.3774,S,06040.4585,W,2.13,182.08,051213,,,A*6F
$GPRMC,204619.000,A,3138.3780,S,06040.4585,W,2.13,182.27,051213,,,A*68
$GPRMC,204620.000,A,3138.3786,S,06040.4585,W,2.17,182.51,051213,,,A*61
$GPRMC,204621.000,A,3138.3792,S,06040.4585,W,2.16,182.65,051213,,,A*63
$GPRMC,204622.000,A,3138.3800,S,06040.4582,W,3.46,168.77,051213,,,A*60
$GPRMC,204623.000,A,3138.3806,S,06040.4582,W,1.51,171.20,051213,,,A*69
$GPRMC,204624.000,A,3138.3811,S,06040.4583,W,1.73,173.01,051213,,,A*68
$GPRMC,204625.000,A,3138.3814,S,06040.4583,W,0.84,175.80,051213,,,A*6A
$GPRMC,204626.000,A,3138.3813,S,06040.4582,W,0.22,175.80,051213,,,A*63
$GPRMC,204627.000,A,3138.3814,S,06040.4582,W,0.28,175.80,051213,,,A*6F
$GPRMC,204628.000,A,3138.3814,S,06040.4581,W,0.25,175.80,051213,,,A*6E
$GPRMC,204629.000,A,3138.3815,S,06040.4580,W,0.04,175.80,051213,,,A*6C
$GPRMC,204630.000,A,3138.3815,S,06040.4580,W,0.02,175.80,051213,,,A*62
$GPRMC,204631.000,A,3138.3815,S,06040.4579,W,0.06,175.80,051213,,,A*61
$GPRMC,204632.000,A,3138.3816,S,06040.4578,W,0.07,175.80,051213,,,A*61
$GPRMC,204633.000,A,3138.3817,S,06040.4577,W,0.07,175.80,051213,,,A*6E
$GPRMC,204634.000,A,3138.3818,S,06040.4574,W,0.12,175.80,051213,,,A*61
$GPRMC,204635.000,A,3138.3819,S,06040.4572,W,0.14,175.80,051213,,,A*61
$GPRMC,204636.000,A,3138.3819,S,06040.4572,W,0.19,175.80,051213,,,A*6F
$GPRMC,204637.000,A,3138.3819,S,06040.4571,W,0.16,175.80,051213,,,A*62
$GPRMC,204638.000,A,3138.3818,S,06040.4571,W,0.06,175.80,051213,,,A*6D
$GPRMC,204639.000,A,3138.3818,S,06040.4571,W,0.10,175.80,051213,,,A*6B
$GPRMC,204640.000,A,3138.3818,S,06040.4570,W,0.11,175.80,051213,,,A*65
$GPRMC,204641.000,A,3138.3818,S,06040.4570,W,0.14,175.80,051213,,,A*61
$GPRMC,204642.000,A,3138.3818,S,06040.4570,W,0.09,175.80,051213,,,A*6E
$GPRMC,204643.000,A,3138.3819,S,06040.4570,W,0.13,175.80,051213,,,A*65
$GPRMC,204644.000,A,3138.3818,S,06040.4569,W,0.13,175.80,051213,,,A*6B
$GPRMC,204645.000,A,3138.3818,S,06040.4569,W,0.17,175.80,051213,,,A*6E
$GPRMC,204646.000,A,3138.3817,S,06040.4569,W,0.07,175.80,051213,,,A*63
$GPRMC,204647.000,A,3138.3817,S,06040.4569,W,0.06,175.80,051213,,,A*63
$GPRMC,204648.000,A,3138.3817,S,06040.4569,W,0.08,175.80,051213,,,A*62
$GPRMC,204649.000,A,3138.3817,S,06040.4569,W,0.19,175.80,051213,,,A*63
$GPRMC,204650.000,A,3138.3817,S,06040.4569,W,0.22,175.80,051213,,,A*63
$GPRMC,204651.000,A,3138.3816,S,06040.4569,W,0.07,175.80,051213,,,A*64
$GPRMC,204652.000,A,3138.3816,S,06040.4569,W,0.08,175.80,051213,,,A*68
$GPRMC,204653.000,A,3138.3816,S,06040.4569,W,0.14,175.80,051213,,,A*64
$GPRMC,204654.000,A,3138.3817,S,06040.4569,W,0.06,175.80,051213,,,A*61
$GPRMC,204655.000,A,3138.3817,S,06040.4569,W,0.04,175.80,051213,,,A*62
$GPRMC,204656.000,A,3138.3817,S,06040.4568,W,0.07,175.80,051213,,,A*63
$GPRMC,204657.000,A,3138.3817,S,06040.4568,W,0.12,175.80,051213,,,A*66
$GPRMC,204658.000,A,3138.3817,S,06040.4569,W,0.16,175.80,051213,,,A*6C
$GPRMC,204659.000,A,3138.3817,S,06040.4569,W,0.17,175.80,051213,,,A*6C
$GPRMC,204700.000,A,3138.3815,S,06040.4568,W,0.17,175.80,051213,,,A*62
$GPRMC,204701.000,A,3138.3814,S,06040.4567,W,0.13,175.80,051213,,,A*69
$GPRMC,204702.000,A,3138.3813,S,06040.4566,W,0.09,175.80,051213,,,A*67
$GPRMC,204703.000,A,3138.3813,S,06040.4565,W,0.08,175.80,051213,,,A*64
$GPRMC,204704.000,A,3138.3813,S,06040.4565,W,0.07,175.80,051213,,,A*6C
$GPRMC,204705.000,A,3138.3813,S,06040.4565,W,0.05,175.80,051213,,,A*6F
$GPRMC,204706.000,A,3138.3813,S,06040.4565,W,0.04,175.80,051213,,,A*6D
$GPRMC,204707.000,A,3138.3813,S,06040.4565,W,0.05,175.80,051213,,,A*6D
$GPRMC,204708.000,A,3138.3813,S,06040.4566,W,0.06,175.80,051213,,,A*62
$GPRMC,204709.000,A,3138.3812,S,06040.4566,W,0.10,175.80,051213,,,A*65
$GPRMC,204710.000,A,3138.3813,S,06040.4566,W,0.13,175.80,051213,,,A*6F
$GPRMC,204711.000,A,3138.3814,S,06040.4566,W,0.14,175.80,051213,,,A*6E
$GPRMC,204712.000,A,3138.3814,S,06040.4565,W,0.14,175.80,051213,,,A*6E
$GPRMC,204713.000,A,3138.3814,S,06040.4563,W,0.40,175.80,051213,,,A*68
$GPRMC,204714.000,A,3138.3815,S,06040.4558,W,0.87,171.53,051213,,,A*67
$GPRMC,204715.000,A,3138.3816,S,06040.4552,W,1.52,166.92,051213,,,A*6D
$GPRMC,204716.000,A,3138.3817,S,06040.4544,W,2.13,161.50,051213,,,A*67
$GPRMC,204717.000,A,3138.3818,S,06040.4536,W,2.38,155.62,051213,,,A*63
$GPRMC,204718.000,A,3138.3818,S,06040.4531,W,2.33,90.80,051213,,,A*54
$GPRMC,204719.000,A,3138.3816,S,06040.4522,W,2.34,87.78,051213,,,A*5F
$GPRMC,204720.000,A,3138.3816,S,06040.4515,W,2.38,88.36,051213,,,A*58
$GPRMC,204721.000,A,3138.3816,S,06040.4505,W,1.75,86.88,051213,,,A*59
$GPRMC,204722.000,A,3138.3815,S,06040.4505,W,0.60,36.85,051213,,,A*5A
$GPRMC,204723.000,A,3138.3811,S,06040.4506,W,1.36,350.04,051213,,,A*64
$GPRMC,204724.000,A,3138.3803,S,06040.4509,W,1.94,346.55,051213,,,A*64
$GPRMC,204725.000,A,3138.3796,S,06040.4510,W,2.16,347.17,051213,,,A*60
$GPRMC,204726.000,A,3138.3789,S,06040.4512,W,2.13,348.32,051213,,,A*62
$GPRMC,204727.000,A,3138.3783,S,06040.4513,W,2.18,6.03,051213,,,A*68
$GPRMC,204728.000,A,3138.3777,S,06040.4514,W,2.36,7.81,051213,,,A*6C
$GPRMC,204729.000,A,3138.3770,S,06040.4514,W,2.38,5.27,051213,,,A*6A
$GPRMC,204730.000,A,3138.3762,S,06040.4514,W,2.19,3.70,051213,,,A*66
$GPRMC,204731.000,A,3138.3757,S,06040.4516,W,0.90,309.88,051213,,,A*6E
$GPRMC,204732.000,A,3138.3756,S,06040.4520,W,1.81,270.59,051213,,,A*6B
$GPRMC,204733.000,A,3138.3756,S,06040.4528,W,2.39,273.34,051213,,,A*6A
$GPRMC,204734.000,A,3138.3756,S,06040.4536,W,2.34,271.98,051213,,,A*6B
$GPRMC,204735.000,A,3138.3756,S,06040.4544,W,2.52,270.67,051213,,,A*6E
$GPRMC,204736.000,A,3138.3756,S,06040.4550,W,1.53,270.04,051213,,,A*6F
$GPRMC,204737.000,A,3138.3756,S,06040.4557,W,2.47,275.91,051213,,,A*66
$GPRMC,204738.000,A,3138.3756,S,06040.4564,W,1.89,274.78,051213,,,A*6E
$GPRMC,204739.000,A,3138.3756,S,06040.4573,W,3.41,273.33,051213,,,A*67
$GPRMC,204740.000,A,3138.3756,S,06040.4579,W,0.71,267.47,051213,,,A*65
$GPRMC,204741.000,A,3138.3759,S,06040.4581,W,0.92,259.49,051213,,,A*62
$GPRMC,204742.000,A,3138.3767,S,06040.4583,W,2.12,252.16,051213,,,A*65
$GPRMC,204743.000,A,3138.3773,S,06040.4584,W,2.39,246.46,051213,,,A*6F
$GPRMC,204744.000,A,3138.3785,S,06040.4583,W,5.43,175.88,051213,,,A*6D
$GPRMC,204745.000,A,3138.3796,S,06040.4583,W,2.91,178.32,051213,,,A*6A
$GPRMC,204746.000,A,3138.3802,S,06040.4582,W,2.53,180.04,051213,,,A*66
$GPRMC,204747.000,A,3138.3809,S,06040.4583,W,3.23,182.62,051213,,,A*69
$GPRMC,204748.000,A,3138.3817,S,06040.4583,W,2.48,180.46,051213,,,A*61
$GPRMC,204749.000,A,3138.3821,S,06040.4583,W,2.18,181.52,051213,,,A*64
$GPRMC,204750.000,A,3138.3820,S,06040.4581,W,0.41,182.06,051213,,,A*63
$GPRMC,204751.000,A,3138.3818,S,06040.4580,W,0.03,181.93,051213,,,A*61
$GPRMC,204752.000,A,3138.3818,S,06040.4578,W,0.05,181.78,051213,,,A*66
$GPRMC,204753.000,A,3138.3818,S,06040.4577,W,0.06,182.14,051213,,,A*62
$GPRMC,204754.000,A,3138.3818,S,06040.4577,W,0.15,182.09,051213,,,A*6B
$GPRMC,204755.000,A,3138.3817,S,06040.4576,W,0.08,182.09,051213,,,A*68
$GPRMC,204756.000,A,3138.3817,S,06040.4576,W,0.09,182.09,051213,,,A*6A
$GPRMC,204757.000,A,3138.3817,S,06040.4576,W,0.03,182.09,051213,,,A*61
$GPRMC,204758.000,A,3138.3817,S,06040.4576,W,0.01,182.09,051213,,,A*6C
$GPRMC,204759.000,A,3138.3817,S,06040.4576,W,0.14,182.09,051213,,,A*69
$GPRMC,204800.000,A,3138.3817,S,06040.4576,W,0.01,182.09,051213,,,A*6E
$GPRMC,204801.000,A,3138.3818,S,06040.4576,W,0.03,182.09,051213,,,A*62
$GPRMC,204802.000,A,3138.3818,S,06040.4576,W,0.03,182.09,051213,,,A*61
$GPRMC,204803.000,A,3138.3818,S,06040.4576,W,0.07,182.09,051213,,,A*64
$GPRMC,204804.000,A,3138.3817,S,06040.4576,W,0.05,182.09,051213,,,A*6E
$GPRMC,204805.000,A,3138.3817,S,06040.4576,W,0.08,182.09,051213,,,A*62
$GPRMC,204806.000,A,3138.3817,S,06040.4576,W,0.05,182.09,051213,,,A*6C
$GPRMC,204807.000,A,3138.3817,S,06040.4576,W,0.07,182.09,051213,,,A*6F
$GPRMC,204808.000,A,3138.3817,S,06040.4576,W,0.21,182.09,051213,,,A*64
$GPRMC,204809.000,A,3138.3817,S,06040.4576,W,0.10,182.09,051213,,,A*67
$GPRMC,204810.000,A,3138.3817,S,06040.4576,W,0.06,182.09,051213,,,A*68
$GPRMC,204811.000,A,3138.3817,S,06040.4576,W,0.03,182.09,051213,,,A*6C
$GPRMC,204812.000,A,3138.3817,S,06040.4576,W,0.13,182.09,051213,,,A*6E
$GPRMC,204813.000,A,3138.3817,S,06040.4576,W,0.02,182.09,051213,,,A*6F
$GPRMC,204814.000,A,3138.3817,S,06040.4576,W,0.17,182.09,051213,,,A*6C
$GPRMC,204815.000,A,3138.3817,S,06040.4576,W,0.03,182.09,051213,,,A*68
$GPRMC,204816.000,A,3138.3817,S,06040.4576,W,0.02,182.09,051213,,,A*6A
$GPRMC,204817.000,A,3138.3817,S,06040.4576,W,0.02,182.09,051213,,,A*6B
$GPRMC,204818.000,A,3138.3817,S,06040.4576,W,0.19,182.09,051213,,,A*6E
$GPRMC,204819.000,A,3138.3817,S,06040.4576,W,0.11,182.09,051213,,,A*67
$GPRMC,204820.000,A,3138.3817,S,06040.4576,W,0.05,182.09,051213,,,A*68
$GPRMC,204821.000,A,3138.3817,S,06040.4576,W,0.01,182.09,051213,,,A*6D
$GPRMC,204822.000,A,3138.3817,S,06040.4576,W,0.02,182.09,051213,,,A*6D
$GPRMC,204823.000,A,3138.3817,S,06040.4576,W,0.05,182.09,051213,,,A*6B
$GPRMC,204824.000,A,3138.3817,S,06040.4576,W,0.03,182.09,051213,,,A*6A
$GPRMC,204825.000,A,3138.3817,S,06040.4576,W,0.13,182.09,051213,,,A*6A
$GPRMC,204826.000,A,3138.3817,S,06040.4576,W,0.06,182.09,051213,,,A*6D
$GPRMC,204827.000,A,3138.3817,S,06040.4576,W,0.00,182.09,051213,,,A*6A
$GPRMC,204828.000,A,3138.3817,S,06040.4576,W,0.03,182.09,051213,,,A*66
$GPRMC,204829.000,A,3138.3817,S,06040.4576,W,0.04,182.09,051213,,,A*60
$GPRMC,204830.000,A,3138.3817,S,06040.4576,W,0.12,182.09,051213,,,A*6F
$GPRMC,204831.000,A,3138.3817,S,06040.4576,W,0.10,182.09,051213,,,A*6C
$GPRMC,204832.000,A,3138.3817,S,06040.4576,W,0.00,182.09,051213,,,A*6E
$GPRMC,204833.000,A,3138.3817,S,06040.4576,W,0.05,182.09,051213,,,A*6A
$GPRMC,204834.000,A,3138.3817,S,06040.4576,W,0.04,182.09,051213,,,A*6C
$GPRMC,204835.000,A,3138.3817,S,06040.4576,W,0.03,182.09,051213,,,A*6A
$GPRMC,204836.000,A,3138.3817,S,06040.4576,W,0.01,182.09,051213,,,A*6B
$GPRMC,204837.000,A,3138.3817,S,06040.4576,W,0.01,182.09,051213,,,A*6A
$GPRMC,204838.000,A,3138.3817,S,06040.4576,W,0.10,182.09,051213,,,A*65
$GPRMC,204839.000,A,3138.3817,S,06040.4576,W,0.10,182.09,051213,,,A*64
$GPRMC,204840.000,A,3138.3817,S,06040.4576,W,0.05,182.09,051213,,,A*6E
$GPRMC,204841.000,A,3138.3817,S,06040.4576,W,0.02,182.09,051213,,,A*68
$GPRMC,204842.000,A,3138.3817,S,06040.4576,W,0.03,182.09,051213,,,A*6A
$GPRMC,204843.000,A,3138.3817,S,06040.4576,W,0.03,182.09,051213,,,A*6B
$GPRMC,204844.000,A,3138.3817,S,06040.4576,W,0.02,182.09,051213,,,A*6D
$GPRMC,204845.000,A,3138.3817,S,06040.4576,W,0.02,182.09,051213,,,A*6C
$GPRMC,204846.000,A,3138.3817,S,06040.4576,W,0.03,182.09,051213,,,A*6E
$GPRMC,204847.000,A,3138.3817,S,06040.4576,W,0.03,182.09,051213,,,A*6F
$GPRMC,204848.000,A,3138.3817,S,06040.4576,W,0.01,182.09,051213,,,A*62
$GPRMC,204849.000,A,3138.3817,S,06040.4576,W,0.03,182.09,051213,,,A*61
$GPRMC,204850.000,A,3138.3817,S,06040.4576,W,0.02,182.09,051213,,,A*68
$GPRMC,204851.000,A,3138.3817,S,06040.4576,W,0.02,182.09,051213,,,A*69
$GPRMC,204852.000,A,3138.3817,S,06040.4576,W,0.01,182.09,051213,,,A*69
$GPRMC,204853.000,A,3138.3817,S,06040.4576,W,0.02,182.09,051213,,,A*6B
$GPRMC,204854.000,A,3138.3817,S,06040.4576,W,0.04,182.09,051213,,,A*6A
$GPRMC,204855.000,A,3138.3817,S,06040.4576,W,0.02,182.09,051213,,,A*6D
$GPRMC,204856.000,A,3138.3817,S,06040.4576,W,0.01,182.09,051213,,,A*6D
$GPRMC,204857.000,A,3138.3817,S,06040.4576,W,0.01,182.09,051213,,,A*6C
$GPRMC,204858.000,A,3138.3817,S,06040.4576,W,0.01,182.09,051213,,,A*63
$GPRMC,204859.000,A,3138.3817,S,06040.4575,W,0.01,182.09,051213,,,A*61
$GPRMC,204900.000,A,3138.3817,S,06040.4575,W,0.01,182.09,051213,,,A*6C
$GPRMC,204901.000,A,3138.3817,S,06040.4574,W,0.01,182.09,051213,,,A*6C
$GPRMC,204902.000,A,3138.3817,S,06040.4573,W,0.01,182.09,051213,,,A*68
$GPRMC,204903.000,A,3138.3817,S,06040.4573,W,0.01,182.09,051213,,,A*69
$GPRMC,204904.000,A,3138.3817,S,06040.4572,W,0.01,182.10,051213,,,A*67
$GPRMC,204905.000,A,3138.3817,S,06040.4571,W,0.01,182.10,051213,,,A*65
$GPRMC,204906.000,A,3138.3817,S,06040.4571,W,0.01,182.09,051213,,,A*6E
$GPRMC,204907.000,A,3138.3817,S,06040.4570,W,0.01,182.09,051213,,,A*6E
$GPRMC,204908.000,A,3138.3817,S,06040.4570,W,0.02,182.09,051213,,,A*62
$GPRMC,204909.000,A,3138.3817,S,06040.4570,W,0.04,182.09,051213,,,A*65
$GPRMC,204910.000,A,3138.3817,S,06040.4569,W,0.05,182.09,051213,,,A*64
$GPRMC,204911.000,A,3138.3817,S,06040.4569,W,0.06,182.09,051213,,,A*66
$GPRMC,204912.000,A,3138.3817,S,06040.4569,W,0.06,182.09,051213,,,A*65
$GPRMC,204913.000,A,3138.3817,S,06040.4568,W,0.87,92.71,051213,,,A*53
$GPRMC,204914.000,A,3138.3817,S,06040.4563,W,2.16,93.62,051213,,,A*56
$GPRMC,204915.000,A,3138.3817,S,06040.4555,W,2.55,93.51,051213,,,A*55
$GPRMC,204916.000,A,3138.3817,S,06040.4547,W,2.51,92.65,051213,,,A*57
$GPRMC,204917.000,A,3138.3818,S,06040.4539,W,2.51,93.35,051213,,,A*54
$GPRMC,204918.000,A,3138.3818,S,06040.4530,W,2.50,94.77,051213,,,A*52
$GPRMC,204919.000,A,3138.3819,S,06040.4522,W,2.45,92.96,051213,,,A*5C
$GPRMC,204920.000,A,3138.3819,S,06040.4514,W,2.22,93.66,051213,,,A*5C
$GPRMC,204921.000,A,3138.3819,S,06040.4509,W,1.35,75.35,051213,,,A*5A
$GPRMC,204922.000,A,3138.3815,S,06040.4507,W,2.14,6.90,051213,,,A*60
$GPRMC,204923.000,A,3138.3808,S,06040.4507,W,2.68,359.48,051213,,,A*6A
$GPRMC,204924.000,A,3138.3801,S,06040.4508,W,2.37,358.94,051213,,,A*61
$GPRMC,204925.000,A,3138.3794,S,06040.4509,W,2.42,359.55,051213,,,A*6C
$GPRMC,204926.000,A,3138.3787,S,06040.4510,W,2.44,1.81,051213,,,A*64
$GPRMC,204927.000,A,3138.3780,S,06040.4510,W,2.51,3.92,051213,,,A*66
$GPRMC,204928.000,A,3138.3773,S,06040.4510,W,2.78,5.56,051213,,,A*60
$GPRMC,204929.000,A,3138.3765,S,06040.4510,W,2.32,0.63,051213,,,A*6B
$GPRMC,204930.000,A,3138.3762,S,06040.4512,W,1.08,295.67,051213,,,A*66
$GPRMC,204931.000,A,3138.3762,S,06040.4518,W,1.78,293.06,051213,,,A*6B
$GPRMC,204932.000,A,3138.3762,S,06040.4526,W,2.94,290.30,051213,,,A*62
$GPRMC,204933.000,A,3138.3763,S,06040.4536,W,2.92,287.82,051213,,,A*6A
$GPRMC,204934.000,A,3138.3764,S,06040.4546,W,2.90,271.22,051213,,,A*6C
$GPRMC,204935.000,A,3138.3763,S,06040.4555,W,2.73,274.16,051213,,,A*67
$GPRMC,204936.000,A,3138.3762,S,06040.4563,W,2.68,277.15,051213,,,A*6A
$GPRMC,204937.000,A,3138.3762,S,06040.4570,W,1.85,268.86,051213,,,A*6D
$GPRMC,204938.000,A,3138.3763,S,06040.4575,W,0.99,235.03,051213,,,A*6F
$GPRMC,204939.000,A,3138.3766,S,06040.4575,W,0.98,227.99,051213,,,A*6A
$GPRMC,204940.000,A,3138.3772,S,06040.4576,W,1.70,222.94,051213,,,A*6D
$GPRMC,204941.000,A,3138.3780,S,06040.4577,W,2.17,218.85,051213,,,A*6B
$GPRMC,204942.000,A,3138.3788,S,06040.4577,W,2.88,214.92,051213,,,A*6C
$GPRMC,204943.000,A,3138.3793,S,06040.4578,W,1.68,190.57,051213,,,A*63
$GPRMC,204944.000,A,3138.3800,S,06040.4577,W,3.23,188.81,051213,,,A*61
$GPRMC,204945.000,A,3138.3807,S,06040.4577,W,2.04,187.99,051213,,,A*65
$GPRMC,204946.000,A,3138.3812,S,06040.4577,W,2.00,187.45,051213,,,A*67
$GPRMC,204947.000,A,3138.3815,S,06040.4575,W,1.31,185.65,051213,,,A*62
$GPRMC,204948.000,A,3138.3817,S,06040.4572,W,0.06,185.65,051213,,,A*6D
$GPRMC,204949.000,A,3138.3817,S,06040.4571,W,0.04,185.65,051213,,,A*6D
$GPRMC,204950.000,A,3138.3818,S,06040.4570,W,0.04,185.65,051213,,,A*6B
$GPRMC,204951.000,A,3138.3820,S,06040.4570,W,0.03,185.65,051213,,,A*66
$GPRMC,204952.000,A,3138.3820,S,06040.4570,W,0.02,185.65,051213,,,A*64
$GPRMC,204953.000,A,3138.3820,S,06040.4570,W,0.03,185.65,051213,,,A*64
$GPRMC,204954.000,A,3138.3820,S,06040.4570,W,0.03,185.65,051213,,,A*63
$GPRMC,204955.000,A,3138.3820,S,06040.4570,W,0.02,185.65,051213,,,A*63
$GPRMC,204956.000,A,3138.3820,S,06040.4570,W,0.02,185.65,051213,,,A*60
$GPRMC,204957.000,A,3138.3820,S,06040.4570,W,0.02,185.65,051213,,,A*61
$GPRMC,204958.000,A,3138.3820,S,06040.4570,W,0.02,185.65,051213,,,A*6E
$GPRMC,204959.000,A,3138.3820,S,06040.4570,W,0.06,185.65,051213,,,A*6B
$GPRMC,205000.000,A,3138.3820,S,06040.4570,W,0.06,185.65,051213,,,A*6F
$GPRMC,205001.000,A,3138.3819,S,06040.4570,W,0.01,185.65,051213,,,A*63
$GPRMC,205002.000,A,3138.3819,S,06040.4570,W,0.02,185.65,051213,,,A*63
$GPRMC,205003.000,A,3138.3819,S,06040.4570,W,0.02,185.65,051213,,,A*62
$GPRMC,205004.000,A,3138.3819,S,06040.4570,W,0.03,185.65,051213,,,A*64
$GPRMC,205005.000,A,3138.3819,S,06040.4570,W,0.02,185.65,051213,,,A*64
$GPRMC,205006.000,A,3138.3819,S,06040.4570,W,0.01,185.65,051213,,,A*64
$GPRMC,205007.000,A,3138.3819,S,06040.4570,W,0.01,185.65,051213,,,A*65
$GPRMC,205008.000,A,3138.3819,S,06040.4570,W,0.02,185.65,051213,,,A*69
$GPRMC,205009.000,A,3138.3819,S,06040.4570,W,0.01,185.65,051213,,,A*6B
$GPRMC,205010.000,A,3138.3819,S,06040.4570,W,0.01,185.65,051213,,,A*63
$GPRMC,205011.000,A,3138.3819,S,06040.4570,W,0.01,185.65,051213,,,A*62
$GPRMC,205012.000,A,3138.3819,S,06040.4570,W,0.14,185.65,051213,,,A*65
$GPRMC,205013.000,A,3138.3819,S,06040.4570,W,1.78,185.65,051213,,,A*6F
$GPRMC,205014.000,A,3138.3820,S,06040.4563,W,2.43,95.54,051213,,,A*59
$GPRMC,205015.000,A,3138.3821,S,06040.4555,W,2.49,92.93,051213,,,A*5A
$GPRMC,205016.000,A,3138.3821,S,06040.4546,W,2.44,92.59,051213,,,A*50
$GPRMC,205017.000,A,3138.3822,S,06040.4538,W,2.43,92.76,051213,,,A*51
$GPRMC,205018.000,A,3138.3823,S,06040.4530,W,2.41,94.33,051213,,,A*52
$GPRMC,205019.000,A,3138.3824,S,06040.4522,W,2.24,94.59,051213,,,A*58
$GPRMC,205020.000,A,3138.3824,S,06040.4516,W,1.95,94.24,051213,,,A*56
$GPRMC,205021.000,A,3138.3823,S,06040.4513,W,1.07,32.22,051213,,,A*54
$GPRMC,205022.000,A,3138.3818,S,06040.4513,W,1.88,4.46,051213,,,A*6F
$GPRMC,205023.000,A,3138.3811,S,06040.4514,W,2.46,4.51,051213,,,A*67
$GPRMC,205024.000,A,3138.3804,S,06040.4515,W,2.42,3.05,051213,,,A*67
$GPRMC,205025.000,A,3138.3796,S,06040.4515,W,2.47,4.05,051213,,,A*60
$GPRMC,205026.000,A,3138.3789,S,06040.4515,W,2.47,3.23,051213,,,A*6E
$GPRMC,205027.000,A,3138.3781,S,06040.4516,W,2.50,1.76,051213,,,A*60
$GPRMC,205028.000,A,3138.3773,S,06040.4516,W,2.42,1.64,051213,,,A*62
$GPRMC,205029.000,A,3138.3767,S,06040.4516,W,1.74,359.36,051213,,,A*69
$GPRMC,205030.000,A,3138.3763,S,06040.4518,W,1.16,292.64,051213,,,A*6E
$GPRMC,205031.000,A,3138.3762,S,06040.4524,W,2.25,273.45,051213,,,A*6E
$GPRMC,205032.000,A,3138.3762,S,06040.4532,W,2.58,273.50,051213,,,A*64
$GPRMC,205033.000,A,3138.3761,S,06040.4540,W,2.55,272.52,051213,,,A*6D
$GPRMC,205034.000,A,3138.3761,S,06040.4548,W,2.40,272.43,051213,,,A*66
$GPRMC,205035.000,A,3138.3761,S,06040.4556,W,2.46,273.50,051213,,,A*6D
$GPRMC,205036.000,A,3138.3761,S,06040.4564,W,2.50,273.57,051213,,,A*6F
$GPRMC,205037.000,A,3138.3760,S,06040.4572,W,2.18,273.27,051213,,,A*63
$GPRMC,205038.000,A,3138.3762,S,06040.4577,W,1.22,221.84,051213,,,A*6F
$GPRMC,205039.000,A,3138.3767,S,06040.4579,W,2.56,182.28,051213,,,A*69
$GPRMC,205040.000,A,3138.3773,S,06040.4579,W,1.94,175.63,051213,,,A*68
$GPRMC,205041.000,A,3138.3779,S,06040.4579,W,2.15,176.60,051213,,,A*69
$GPRMC,205042.000,A,3138.3785,S,06040.4578,W,2.33,177.14,051213,,,A*6E
$GPRMC,205043.000,A,3138.3791,S,06040.4579,W,2.38,177.77,051213,,,A*65
$GPRMC,205044.000,A,3138.3798,S,06040.4579,W,2.55,178.49,051213,,,A*62
$GPRMC,205045.000,A,3138.3805,S,06040.4580,W,2.00,180.02,051213,,,A*66
$GPRMC,205046.000,A,3138.3810,S,06040.4580,W,1.76,180.28,051213,,,A*6B
$GPRMC,205047.000,A,3138.3813,S,06040.4579,W,0.71,166.81,051213,,,A*62
$GPRMC,205048.000,A,3138.3814,S,06040.4579,W,0.09,166.81,051213,,,A*65
$GPRMC,205049.000,A,3138.3814,S,06040.4579,W,0.08,166.81,051213,,,A*65
$GPRMC,205050.000,A,3138.3815,S,06040.4578,W,0.08,166.81,051213,,,A*6D
$GPRMC,205051.000,A,3138.3815,S,06040.4579,W,0.07,166.81,051213,,,A*62
$GPRMC,205052.000,A,3138.3815,S,06040.4579,W,0.11,166.81,051213,,,A*66
$GPRMC,205053.000,A,3138.3814,S,06040.4579,W,0.03,166.81,051213,,,A*65
$GPRMC,205054.000,A,3138.3814,S,06040.4579,W,0.00,166.81,051213,,,A*61
$GPRMC,205055.000,A,3138.3814,S,06040.4579,W,0.02,166.81,051213,,,A*62
$GPRMC,205056.000,A,3138.3814,S,06040.4579,W,0.01,166.81,051213,,,A*62
$GPRMC,205057.000,A,3138.3814,S,06040.4579,W,0.01,166.81,051213,,,A*63
$GPRMC,205058.000,A,3138.3814,S,06040.4579,W,0.02,166.81,051213,,,A*6F
$GPRMC,205059.000,A,3138.3815,S,06040.4579,W,0.01,166.81,051213,,,A*6C
