$GPRMC,211058.205,A,3138.3768,S,06040.4601,W,0.94,223.87,051213,,,A*6E
$GPRMC,211059.205,A,3138.3800,S,06040.4570,W,0.53,223.87,051213,,,A*60
$GPRMC,211101.000,A,3138.3800,S,06040.4566,W,0.15,223.87,051213,,,A*6E
$GPRMC,211102.000,A,3138.3800,S,06040.4570,W,0.16,223.87,051213,,,A*69
$GPRMC,211103.000,A,3138.3800,S,06040.4571,W,0.15,223.87,051213,,,A*6A
$GPRMC,211104.000,A,3138.3799,S,06040.4569,W,0.17,223.87,051213,,,A*69
$GPRMC,211105.000,A,3138.3801,S,06040.4571,W,0.07,223.87,051213,,,A*6E
$GPRMC,211106.000,A,3138.3801,S,06040.4572,W,0.02,223.87,051213,,,A*6B
$GPRMC,211107.000,A,3138.3804,S,06040.4575,W,0.00,223.87,051213,,,A*6A
$GPRMC,211108.000,A,3138.3806,S,06040.4574,W,0.10,223.87,051213,,,A*67
$GPRMC,211109.000,A,3138.3809,S,06040.4574,W,0.07,223.87,051213,,,A*6F
$GPRMC,211110.000,A,3138.3812,S,06040.4574,W,0.12,223.87,051213,,,A*69
$GPRMC,211111.000,A,3138.3814,S,06040.4575,W,0.24,223.87,051213,,,A*6A
$GPRMC,211112.000,A,3138.3815,S,06040.4575,W,0.15,223.87,051213,,,A*6A
$GPRMC,211113.000,A,3138.3815,S,06040.4574,W,0.22,223.87,051213,,,A*6E
$GPRMC,211114.000,A,3138.3812,S,06040.4570,W,1.28,52.44,051213,,,A*5A
$GPRMC,211115.000,A,3138.3814,S,06040.4565,W,1.54,99.56,051213,,,A*56
$GPRMC,211116.000,A,3138.3816,S,06040.4560,W,1.55,114.60,051213,,,A*62
$GPRMC,211117.000,A,3138.3819,S,06040.4556,W,1.47,122.48,051213,,,A*65
$GPRMC,211118.000,A,3138.3820,S,06040.4553,W,1.10,105.35,051213,,,A*68
$GPRMC,211119.000,A,3138.3820,S,06040.4550,W,1.52,36.82,051213,,,A*51
$GPRMC,211120.000,A,3138.3816,S,06040.4546,W,1.76,40.21,051213,,,A*57
$GPRMC,211121.000,A,3138.3816,S,06040.4541,W,2.02,113.18,051213,,,A*6C
$GPRMC,211122.000,A,3138.3820,S,06040.4538,W,2.00,164.31,051213,,,A*6D
$GPRMC,211123.000,A,3138.3826,S,06040.4532,W,3.84,136.25,051213,,,A*6F
$GPRMC,211124.000,A,3138.3830,S,06040.4527,W,1.26,96.79,051213,,,A*53
$GPRMC,211125.000,A,3138.3826,S,06040.4521,W,2.04,68.27,051213,,,A*5A
$GPRMC,211126.000,A,3138.3826,S,06040.4515,W,2.27,131.72,051213,,,A*62
$GPRMC,211127.000,A,3138.3828,S,06040.4512,W,0.97,125.20,051213,,,A*61
$GPRMC,211128.000,A,3138.3826,S,06040.4512,W,0.69,31.29,051213,,,A*5C
$GPRMC,211129.000,A,3138.3822,S,06040.4514,W,0.77,335.90,051213,,,A*65
$GPRMC,211130.000,A,3138.3819,S,06040.4518,W,1.31,334.90,051213,,,A*6B
$GPRMC,211131.000,A,3138.3816,S,06040.4517,W,1.33,13.58,051213,,,A*5A
$GPRMC,211132.000,A,3138.3812,S,06040.4513,W,1.73,17.62,051213,,,A*50
$GPRMC,211133.000,A,3138.3808,S,06040.4511,W,1.17,18.07,051213,,,A*56
$GPRMC,211134.000,A,3138.3805,S,06040.4513,W,1.14,324.20,051213,,,A*64
$GPRMC,211135.000,A,3138.3802,S,06040.4521,W,2.18,294.94,051213,,,A*69
$GPRMC,211136.000,A,3138.3796,S,06040.4523,W,2.60,13.95,051213,,,A*59
$GPRMC,211137.000,A,3138.3791,S,06040.4519,W,2.30,18.72,051213,,,A*51
$GPRMC,211138.000,A,3138.3787,S,06040.4514,W,1.79,21.67,051213,,,A*54
$GPRMC,211139.000,A,3138.3783,S,06040.4515,W,1.78,304.14,051213,,,A*61
$GPRMC,211140.000,A,3138.3780,S,06040.4522,W,2.80,303.48,051213,,,A*62
$GPRMC,211141.000,A,3138.3775,S,06040.4525,W,1.86,18.50,051213,,,A*5B
$GPRMC,211142.000,A,3138.3772,S,06040.4522,W,1.38,23.64,051213,,,A*52
$GPRMC,211143.000,A,3138.3770,S,06040.4520,W,0.96,26.97,051213,,,A*5F
$GPRMC,211144.000,A,3138.3767,S,06040.4526,W,1.00,302.65,051213,,,A*6E
$GPRMC,211145.000,A,3138.3767,S,06040.4530,W,1.31,298.56,051213,,,A*68
$GPRMC,211146.000,A,3138.3768,S,06040.4536,W,1.55,294.79,051213,,,A*61
$GPRMC,211147.000,A,3138.3770,S,06040.4542,W,1.95,290.43,051213,,,A*6B
$GPRMC,211148.000,A,3138.3770,S,06040.4547,W,0.68,276.81,051213,,,A*64
$GPRMC,211149.000,A,3138.3763,S,06040.4553,W,3.11,334.14,051213,,,A*64
$GPRMC,211150.000,A,3138.3759,S,06040.4557,W,1.64,325.50,051213,,,A*61
$GPRMC,211151.000,A,3138.3759,S,06040.4563,W,2.05,320.77,051213,,,A*63
$GPRMC,211152.000,A,3138.3760,S,06040.4568,W,1.33,317.09,051213,,,A*6A
$GPRMC,211153.000,A,3138.3756,S,06040.4574,W,2.20,316.52,051213,,,A*6D
$GPRMC,211154.000,A,3138.3754,S,06040.4583,W,3.31,311.86,051213,,,A*6F
$GPRMC,211155.000,A,3138.3755,S,06040.4589,W,1.51,211.31,051213,,,A*6C
$GPRMC,211156.000,A,3138.3758,S,06040.4593,W,1.55,214.14,051213,,,A*6F
$GPRMC,211157.000,A,3138.3762,S,06040.4597,W,2.33,213.26,051213,,,A*66
$GPRMC,211158.000,A,3138.3766,S,06040.4598,W,1.77,209.52,051213,,,A*69
$GPRMC,211159.000,A,3138.3770,S,06040.4594,W,2.11,201.14,051213,,,A*6A
$GPRMC,211200.000,A,3138.3774,S,06040.4590,W,2.18,198.27,051213,,,A*6F
$GPRMC,211201.000,A,3138.3772,S,06040.4592,W,1.40,349.05,051213,,,A*6A
$GPRMC,211202.000,A,3138.3772,S,06040.4594,W,0.41,349.05,051213,,,A*6F
$GPRMC,211203.000,A,3138.3776,S,06040.4593,W,0.69,131.86,051213,,,A*61
$GPRMC,211204.000,A,3138.3783,S,06040.4587,W,1.88,134.81,051213,,,A*65
$GPRMC,211205.000,A,3138.3787,S,06040.4586,W,2.05,141.14,051213,,,A*69
$GPRMC,211206.000,A,3138.3789,S,06040.4590,W,1.05,257.39,051213,,,A*6B
$GPRMC,211207.000,A,3138.3791,S,06040.4596,W,2.18,256.57,051213,,,A*63
$GPRMC,211208.000,A,3138.3795,S,06040.4598,W,1.32,128.28,051213,,,A*6F
$GPRMC,211209.000,A,3138.3801,S,06040.4593,W,1.95,130.80,051213,,,A*61
$GPRMC,211210.000,A,3138.3806,S,06040.4590,W,1.39,135.10,051213,,,A*67
$GPRMC,211211.000,A,3138.3808,S,06040.4590,W,0.61,4.08,051213,,,A*6E
$GPRMC,211212.000,A,3138.3808,S,06040.4588,W,0.88,33.49,051213,,,A*52
$GPRMC,211213.000,A,3138.3808,S,06040.4587,W,0.20,33.49,051213,,,A*5E
$GPRMC,211214.000,A,3138.3808,S,06040.4587,W,0.24,33.49,051213,,,A*5D
$GPRMC,211215.000,A,3138.3808,S,06040.4587,W,0.40,33.49,051213,,,A*5E
$GPRMC,211216.000,A,3138.3808,S,06040.4587,W,0.33,33.49,051213,,,A*59
$GPRMC,211217.000,A,3138.3807,S,06040.4586,W,0.34,33.49,051213,,,A*51
$GPRMC,211218.000,A,3138.3807,S,06040.4585,W,0.40,33.49,051213,,,A*5E
$GPRMC,211219.000,A,3138.3808,S,06040.4584,W,0.04,33.49,051213,,,A*51
$GPRMC,211220.000,A,3138.3808,S,06040.4584,W,0.10,33.49,051213,,,A*5E
$GPRMC,211221.000,A,3138.3808,S,06040.4584,W,0.14,33.49,051213,,,A*5B
$GPRMC,211222.000,A,3138.3808,S,06040.4584,W,0.09,33.49,051213,,,A*54
$GPRMC,211223.000,A,3138.3807,S,06040.4584,W,0.15,33.49,051213,,,A*57
$GPRMC,211224.000,A,3138.3808,S,06040.4584,W,0.01,33.49,051213,,,A*5A
$GPRMC,211225.000,A,3138.3808,S,06040.4584,W,0.10,33.49,051213,,,A*5B
$GPRMC,211226.000,A,3138.3808,S,06040.4585,W,0.09,33.49,051213,,,A*51
$GPRMC,211227.000,A,3138.3808,S,06040.4585,W,0.02,33.49,051213,,,A*5B
$GPRMC,211228.000,A,3138.3808,S,06040.4585,W,0.03,33.49,051213,,,A*55
$GPRMC,211229.000,A,3138.3808,S,06040.4585,W,0.01,33.49,051213,,,A*56
$GPRMC,211230.000,A,3138.3808,S,06040.4585,W,0.11,33.49,051213,,,A*5F
$GPRMC,211231.000,A,3138.3808,S,06040.4585,W,0.04,33.49,051213,,,A*5A
$GPRMC,211232.000,A,3138.3808,S,06040.4585,W,0.40,33.49,051213,,,A*59
$GPRMC,211233.000,A,3138.3808,S,06040.4584,W,1.71,33.49,051213,,,A*5A
$GPRMC,211234.000,A,3138.3807,S,06040.4579,W,2.07,124.45,051213,,,A*69
$GPRMC,211235.000,A,3138.3811,S,06040.4575,W,2.02,166.09,051213,,,A*68
$GPRMC,211236.000,A,3138.3815,S,06040.4571,W,1.55,163.03,051213,,,A*65
$GPRMC,211237.000,A,3138.3816,S,06040.4567,W,1.02,102.98,051213,,,A*67
$GPRMC,211238.000,A,3138.3816,S,06040.4561,W,1.88,47.32,051213,,,A*5C
$GPRMC,211239.000,A,3138.3813,S,06040.4554,W,2.15,50.21,051213,,,A*5D
$GPRMC,211240.000,A,3138.3812,S,06040.4545,W,2.11,56.92,051213,,,A*58
$GPRMC,211241.000,A,3138.3815,S,06040.4538,W,1.49,173.34,051213,,,A*60
$GPRMC,211242.000,A,3138.3818,S,06040.4536,W,1.44,167.69,051213,,,A*60
$GPRMC,211243.000,A,3138.3818,S,06040.4532,W,1.67,45.17,051213,,,A*5C
$GPRMC,211244.000,A,3138.3813,S,06040.4524,W,2.00,44.04,051213,,,A*56
$GPRMC,211245.000,A,3138.3814,S,06040.4520,W,2.00,51.38,051213,,,A*5F
$GPRMC,211246.000,A,3138.3817,S,06040.4516,W,1.20,92.79,051213,,,A*51
$GPRMC,211247.000,A,3138.3815,S,06040.4512,W,1.49,38.50,051213,,,A*52
$GPRMC,211248.000,A,3138.3812,S,06040.4509,W,1.92,39.20,051213,,,A*50
$GPRMC,211249.000,A,3138.3810,S,06040.4509,W,0.63,338.23,051213,,,A*6D
$GPRMC,211250.000,A,3138.3809,S,06040.4514,W,1.20,334.14,051213,,,A*6F
$GPRMC,211251.000,A,3138.3805,S,06040.4518,W,1.46,333.52,051213,,,A*6B
$GPRMC,211252.000,A,3138.3803,S,06040.4514,W,1.49,38.60,051213,,,A*54
$GPRMC,211253.000,A,3138.3800,S,06040.4509,W,2.01,40.86,051213,,,A*52
$GPRMC,211254.000,A,3138.3796,S,06040.4507,W,1.26,37.10,051213,,,A*52
$GPRMC,211255.000,A,3138.3793,S,06040.4510,W,1.21,326.00,051213,,,A*65
$GPRMC,211256.000,A,3138.3788,S,06040.4514,W,1.85,327.34,051213,,,A*60
$GPRMC,211257.000,A,3138.3783,S,06040.4511,W,2.13,17.94,051213,,,A*59
$GPRMC,211258.000,A,3138.3779,S,06040.4506,W,2.68,22.39,051213,,,A*58
$GPRMC,211259.000,A,3138.3774,S,06040.4502,W,1.90,23.14,051213,,,A*5A
$GPRMC,211300.000,A,3138.3771,S,06040.4502,W,1.23,340.74,051213,,,A*6A
$GPRMC,211301.000,A,3138.3768,S,06040.4506,W,1.53,324.85,051213,,,A*6C
$GPRMC,211302.000,A,3138.3764,S,06040.4511,W,1.90,310.44,051213,,,A*60
$GPRMC,211303.000,A,3138.3770,S,06040.4512,W,5.66,184.21,051213,,,A*66
$GPRMC,211304.000,A,3138.3783,S,06040.4517,W,4.98,185.91,051213,,,A*62
$GPRMC,211305.000,A,3138.3791,S,06040.4524,W,3.03,189.22,051213,,,A*61
$GPRMC,211306.000,A,3138.3797,S,06040.4532,W,2.21,288.36,051213,,,A*65
$GPRMC,211307.000,A,3138.3789,S,06040.4544,W,2.16,292.67,051213,,,A*61
$GPRMC,211308.000,A,3138.3783,S,06040.4549,W,1.49,292.13,051213,,,A*63
$GPRMC,211309.000,A,3138.3781,S,06040.4556,W,2.03,288.57,051213,,,A*68
$GPRMC,211310.000,A,3138.3784,S,06040.4562,W,2.74,282.40,051213,,,A*6E
$GPRMC,211311.000,A,3138.3783,S,06040.4571,W,3.05,278.24,051213,,,A*6A
$GPRMC,211312.000,A,3138.3781,S,06040.4578,W,2.22,277.22,051213,,,A*6F
$GPRMC,211313.000,A,3138.3778,S,06040.4583,W,1.45,273.87,051213,,,A*65
$GPRMC,211314.000,A,3138.3779,S,06040.4585,W,0.78,271.69,051213,,,A*68
$GPRMC,211315.000,A,3138.3780,S,06040.4583,W,0.37,270.91,051213,,,A*64
$GPRMC,211316.000,A,3138.3786,S,06040.4574,W,1.33,130.71,051213,,,A*65
$GPRMC,211317.000,A,3138.3787,S,06040.4576,W,1.82,281.55,051213,,,A*62
$GPRMC,211318.000,A,3138.3787,S,06040.4581,W,1.36,279.44,051213,,,A*6D
$GPRMC,211319.000,A,3138.3789,S,06040.4585,W,1.31,277.21,051213,,,A*6C
$GPRMC,211320.000,A,3138.3789,S,06040.4583,W,1.56,137.17,051213,,,A*63
$GPRMC,211321.000,A,3138.3792,S,06040.4580,W,1.61,138.03,051213,,,A*65
$GPRMC,211322.000,A,3138.3795,S,06040.4582,W,1.60,146.87,051213,,,A*67
$GPRMC,211323.000,A,3138.3796,S,06040.4586,W,1.98,290.23,051213,,,A*60
$GPRMC,211324.000,A,3138.3796,S,06040.4591,W,1.60,285.34,051213,,,A*64
$GPRMC,211325.000,A,3138.3798,S,06040.4592,W,2.80,142.65,051213,,,A*69
$GPRMC,211326.000,A,3138.3803,S,06040.4587,W,3.57,141.80,051213,,,A*60
$GPRMC,211327.000,A,3138.3812,S,06040.4579,W,1.47,289.64,051213,,,A*6E
$GPRMC,211328.000,A,3138.3813,S,06040.4584,W,2.18,197.95,051213,,,A*69
$GPRMC,211329.000,A,3138.3816,S,06040.4587,W,1.56,200.27,051213,,,A*63
$GPRMC,211330.000,A,3138.3815,S,06040.4587,W,0.90,192.82,051213,,,A*64
$GPRMC,211331.000,A,3138.3815,S,06040.4586,W,0.50,192.82,051213,,,A*68
$GPRMC,211332.000,A,3138.3815,S,06040.4588,W,0.68,200.73,051213,,,A*68
$GPRMC,211333.000,A,3138.3815,S,06040.4589,W,0.33,200.73,051213,,,A*66
$GPRMC,211334.000,A,3138.3815,S,06040.4589,W,0.17,200.44,051213,,,A*63
$GPRMC,211335.000,A,3138.3815,S,06040.4588,W,0.10,202.46,051213,,,A*64
$GPRMC,211336.000,A,3138.3816,S,06040.4588,W,0.06,203.03,051213,,,A*63
$GPRMC,211337.000,A,3138.3816,S,06040.4588,W,0.02,202.53,051213,,,A*62
$GPRMC,211338.000,A,3138.3816,S,06040.4588,W,0.04,202.53,051213,,,A*6B
$GPRMC,211339.000,A,3138.3816,S,06040.4588,W,0.03,202.53,051213,,,A*6D
$GPRMC,211340.000,A,3138.3816,S,06040.4589,W,0.03,202.53,051213,,,A*62
$GPRMC,211341.000,A,3138.3816,S,06040.4588,W,0.19,202.53,051213,,,A*69
$GPRMC,211342.000,A,3138.3816,S,06040.4588,W,0.02,202.53,051213,,,A*60
$GPRMC,211343.000,A,3138.3816,S,06040.4588,W,0.04,202.53,051213,,,A*67
$GPRMC,211344.000,A,3138.3816,S,06040.4588,W,0.02,202.53,051213,,,A*66
$GPRMC,211345.000,A,3138.3816,S,06040.4588,W,0.02,202.53,051213,,,A*67
$GPRMC,211346.000,A,3138.3816,S,06040.4588,W,0.02,202.53,051213,,,A*64
$GPRMC,211347.000,A,3138.3816,S,06040.4588,W,0.01,202.53,051213,,,A*66
$GPRMC,211348.000,A,3138.3816,S,06040.4588,W,0.03,202.53,051213,,,A*6B
$GPRMC,211349.000,A,3138.3816,S,06040.4588,W,0.01,202.53,051213,,,A*68
$GPRMC,211350.000,A,3138.3816,S,06040.4588,W,0.02,202.53,051213,,,A*63
$GPRMC,211351.000,A,3138.3816,S,06040.4588,W,0.05,202.53,051213,,,A*65
$GPRMC,211352.000,A,3138.3816,S,06040.4588,W,0.05,202.53,051213,,,A*66
$GPRMC,211353.000,A,3138.3816,S,06040.4588,W,0.02,202.53,051213,,,A*60
$GPRMC,211354.000,A,3138.3816,S,06040.4588,W,0.01,202.53,051213,,,A*64
$GPRMC,211355.000,A,3138.3816,S,06040.4588,W,0.01,202.53,051213,,,A*65
$GPRMC,211356.000,A,3138.3816,S,06040.4588,W,0.01,202.53,051213,,,A*66
$GPRMC,211357.000,A,3138.3816,S,06040.4588,W,0.03,202.53,051213,,,A*65
$GPRMC,211358.000,A,3138.3816,S,06040.4588,W,0.03,202.53,051213,,,A*6A
$GPRMC,211359.000,A,3138.3816,S,06040.4588,W,0.01,202.53,051213,,,A*69
$GPRMC,211400.000,A,3138.3816,S,06040.4588,W,0.01,202.53,051213,,,A*62
$GPRMC,211401.000,A,3138.3816,S,06040.4588,W,0.01,202.53,051213,,,A*63
$GPRMC,211402.000,A,3138.3816,S,06040.4588,W,0.01,202.53,051213,,,A*60
$GPRMC,211403.000,A,3138.3816,S,06040.4588,W,0.00,202.53,051213,,,A*60
$GPRMC,211404.000,A,3138.3816,S,06040.4588,W,0.01,202.53,051213,,,A*66
$GPRMC,211405.000,A,3138.3816,S,06040.4588,W,0.01,202.53,051213,,,A*67
$GPRMC,211406.000,A,3138.3816,S,06040.4588,W,0.01,202.53,051213,,,A*64
$GPRMC,211407.000,A,3138.3816,S,06040.4588,W,0.01,202.53,051213,,,A*65
$GPRMC,211408.000,A,3138.3815,S,06040.4588,W,0.01,202.53,051213,,,A*69
$GPRMC,211409.000,A,3138.3815,S,06040.4588,W,0.01,202.53,051213,,,A*68
$GPRMC,211410.000,A,3138.3815,S,06040.4588,W,0.41,202.53,051213,,,A*64
$GPRMC,211411.000,A,3138.3816,S,06040.4587,W,1.41,202.53,051213,,,A*68
$GPRMC,211412.000,A,3138.3818,S,06040.4584,W,1.38,99.87,051213,,,A*51
$GPRMC,211413.000,A,3138.3817,S,06040.4579,W,2.07,43.65,051213,,,A*59
$GPRMC,211414.000,A,3138.3813,S,06040.4575,W,1.81,41.05,051213,,,A*5F
$GPRMC,211415.000,A,3138.3812,S,06040.4569,W,2.13,45.19,051213,,,A*53
$GPRMC,211416.000,A,3138.3811,S,06040.4564,W,0.74,117.23,051213,,,A*62
$GPRMC,211417.000,A,3138.3814,S,06040.4559,W,1.73,128.52,051213,,,A*64
$GPRMC,211418.000,A,3138.3814,S,06040.4554,W,1.91,124.75,051213,,,A*63
$GPRMC,211419.000,A,3138.3812,S,06040.4545,W,2.45,116.05,051213,,,A*68
$GPRMC,211420.000,A,3138.3809,S,06040.4539,W,1.10,357.20,051213,,,A*60
$GPRMC,211421.000,A,3138.3810,S,06040.4536,W,1.82,110.40,051213,,,A*6A
$GPRMC,211422.000,A,3138.3815,S,06040.4531,W,2.89,113.03,051213,,,A*67
$GPRMC,211423.000,A,3138.3819,S,06040.4526,W,1.56,113.36,051213,,,A*6B
$GPRMC,211424.000,A,3138.3819,S,06040.4519,W,2.25,110.77,051213,,,A*61
$GPRMC,211425.000,A,3138.3817,S,06040.4516,W,1.55,358.49,051213,,,A*66
$GPRMC,211426.000,A,3138.3812,S,06040.4518,W,1.32,356.39,051213,,,A*66
$GPRMC,211427.000,A,3138.3808,S,06040.4523,W,1.89,352.68,051213,,,A*64
$GPRMC,211428.000,A,3138.3805,S,06040.4518,W,1.45,25.54,051213,,,A*52
$GPRMC,211429.000,A,3138.3802,S,06040.4516,W,1.47,26.79,051213,,,A*54
$GPRMC,211430.000,A,3138.3796,S,06040.4513,W,2.26,27.62,051213,,,A*54
$GPRMC,211431.000,A,3138.3789,S,06040.4512,W,2.90,343.56,051213,,,A*61
$GPRMC,211432.000,A,3138.3782,S,06040.4513,W,2.70,7.60,051213,,,A*60
$GPRMC,211433.000,A,3138.3776,S,06040.4509,W,2.44,11.85,051213,,,A*5A
$GPRMC,211434.000,A,3138.3773,S,06040.4507,W,1.25,20.15,051213,,,A*59
$GPRMC,211435.000,A,3138.3771,S,06040.4507,W,1.22,311.41,051213,,,A*6D
$GPRMC,211436.000,A,3138.3773,S,06040.4507,W,0.88,304.57,051213,,,A*6E
$GPRMC,211437.000,A,3138.3776,S,06040.4513,W,2.83,297.86,051213,,,A*61
$GPRMC,211438.000,A,3138.3779,S,06040.4520,W,2.39,292.68,051213,,,A*65
$GPRMC,211439.000,A,3138.3776,S,06040.4514,W,7.25,58.07,051213,,,A*59
$GPRMC,211440.000,A,3138.3770,S,06040.4510,W,1.69,55.17,051213,,,A*57
$GPRMC,211441.000,A,3138.3769,S,06040.4507,W,1.66,210.39,051213,,,A*68
$GPRMC,211442.000,A,3138.3773,S,06040.4512,W,3.50,209.83,051213,,,A*6A
$GPRMC,211443.000,A,3138.3779,S,06040.4520,W,2.99,211.56,051213,,,A*65
$GPRMC,211444.000,A,3138.3784,S,06040.4527,W,1.31,338.53,051213,,,A*69
$GPRMC,211445.000,A,3138.3784,S,06040.4528,W,0.96,49.08,051213,,,A*50
$GPRMC,211446.000,A,3138.3781,S,06040.4533,W,0.78,309.01,051213,,,A*62
$GPRMC,211447.000,A,3138.3784,S,06040.4533,W,2.29,212.60,051213,,,A*6C
$GPRMC,211448.000,A,3138.3785,S,06040.4541,W,1.87,215.45,051213,,,A*60
$GPRMC,211449.000,A,3138.3786,S,06040.4543,W,0.33,215.45,051213,,,A*6E
$GPRMC,211450.000,A,3138.3785,S,06040.4544,W,0.70,50.18,051213,,,A*5E
$GPRMC,211451.000,A,3138.3789,S,06040.4549,W,0.07,50.18,051213,,,A*5E
$GPRMC,211452.000,A,3138.3793,S,06040.4549,W,0.97,169.54,051213,,,A*6C
$GPRMC,211453.000,A,3138.3795,S,06040.4555,W,1.31,176.20,051213,,,A*66
$GPRMC,211454.000,A,3138.3796,S,06040.4562,W,1.33,269.42,051213,,,A*6D
$GPRMC,211455.000,A,3138.3795,S,06040.4564,W,0.31,269.42,051213,,,A*6A
$GPRMC,211456.000,A,3138.3799,S,06040.4562,W,1.64,139.60,051213,,,A*64
$GPRMC,211457.000,A,3138.3805,S,06040.4560,W,2.77,143.07,051213,,,A*60
$GPRMC,211458.000,A,3138.3813,S,06040.4559,W,1.77,251.23,051213,,,A*67
$GPRMC,211459.000,A,3138.3814,S,06040.4563,W,1.95,250.51,051213,,,A*60
$GPRMC,211500.000,A,3138.3813,S,06040.4571,W,1.29,244.13,051213,,,A*6D
$GPRMC,211501.000,A,3138.3815,S,06040.4570,W,2.03,143.07,051213,,,A*61
$GPRMC,211502.000,A,3138.3821,S,06040.4567,W,2.32,143.76,051213,,,A*67
$GPRMC,211503.000,A,3138.3820,S,06040.4568,W,3.20,347.33,051213,,,A*6D
$GPRMC,211504.000,A,3138.3814,S,06040.4570,W,1.54,344.19,051213,,,A*6E
$GPRMC,211505.000,A,3138.3814,S,06040.4569,W,0.92,111.13,051213,,,A*64
$GPRMC,211506.000,A,3138.3815,S,06040.4568,W,0.85,110.33,051213,,,A*62
$GPRMC,211507.000,A,3138.3818,S,06040.4564,W,1.27,107.64,051213,,,A*6F
$GPRMC,211508.000,A,3138.3820,S,06040.4562,W,0.70,109.88,051213,,,A*62
$GPRMC,211509.000,A,3138.3823,S,06040.4561,W,0.19,109.88,051213,,,A*6C
$GPRMC,211510.000,A,3138.3824,S,06040.4562,W,0.03,109.88,051213,,,A*6B
$GPRMC,211511.000,A,3138.3824,S,06040.4564,W,0.03,109.88,051213,,,A*6C
$GPRMC,211512.000,A,3138.3824,S,06040.4565,W,0.05,109.88,051213,,,A*68
$GPRMC,211513.000,A,3138.3824,S,06040.4565,W,0.04,109.88,051213,,,A*68
$GPRMC,211514.000,A,3138.3824,S,06040.4565,W,0.00,109.88,051213,,,A*6B
$GPRMC,211515.000,A,3138.3824,S,06040.4565,W,0.01,109.88,051213,,,A*6B
$GPRMC,211516.000,A,3138.3824,S,06040.4565,W,0.29,109.88,051213,,,A*62
$GPRMC,211517.000,A,3138.3824,S,06040.4565,W,1.29,27.68,051213,,,A*51
$GPRMC,211518.000,A,3138.3820,S,06040.4562,W,1.84,56.77,051213,,,A*52
$GPRMC,211519.000,A,3138.3820,S,06040.4557,W,2.35,109.69,051213,,,A*68
$GPRMC,211520.000,A,3138.3824,S,06040.4551,W,2.37,146.67,051213,,,A*67
$GPRMC,211521.000,A,3138.3828,S,06040.4548,W,1.88,144.37,051213,,,A*62
$GPRMC,211522.000,A,3138.3827,S,06040.4545,W,1.06,60.23,051213,,,A*57
$GPRMC,211523.000,A,3138.3825,S,06040.4541,W,1.67,38.19,051213,,,A*53
$GPRMC,211524.000,A,3138.3822,S,06040.4536,W,1.91,39.65,051213,,,A*50
$GPRMC,211525.000,A,3138.3822,S,06040.4532,W,2.25,48.08,051213,,,A*54
$GPRMC,211526.000,A,3138.3827,S,06040.4528,W,2.06,152.15,051213,,,A*6E
$GPRMC,211527.000,A,3138.3829,S,06040.4526,W,1.15,90.18,051213,,,A*5C
$GPRMC,211528.000,A,3138.3826,S,06040.4523,W,2.16,29.61,051213,,,A*55
$GPRMC,211529.000,A,3138.3823,S,06040.4519,W,1.10,35.89,051213,,,A*56
$GPRMC,211530.000,A,3138.3822,S,06040.4519,W,0.64,33.85,051213,,,A*57
$GPRMC,211531.000,A,3138.3820,S,06040.4522,W,0.98,324.09,051213,,,A*6E
$GPRMC,211532.000,A,3138.3818,S,06040.4522,W,0.91,324.76,051213,,,A*67
$GPRMC,211533.000,A,3138.3814,S,06040.4522,W,1.32,4.94,051213,,,A*6F
$GPRMC,211534.000,A,3138.3812,S,06040.4517,W,1.49,63.07,051213,,,A*5F
$GPRMC,211535.000,A,3138.3810,S,06040.4513,W,1.50,61.90,051213,,,A*5C
$GPRMC,211536.000,A,3138.3807,S,06040.4514,W,1.81,321.20,051213,,,A*6E
$GPRMC,211537.000,A,3138.3805,S,06040.4515,W,1.27,324.05,051213,,,A*62
$GPRMC,211538.000,A,3138.3800,S,06040.4519,W,1.88,327.31,051213,,,A*65
$GPRMC,211539.000,A,3138.3796,S,06040.4517,W,1.94,53.75,051213,,,A*57
$GPRMC,211540.000,A,3138.3793,S,06040.4513,W,1.63,53.11,051213,,,A*52
$GPRMC,211541.000,A,3138.3790,S,06040.4510,W,1.39,52.50,051213,,,A*58
$GPRMC,211542.000,A,3138.3787,S,06040.4514,W,1.59,305.94,051213,,,A*66
$GPRMC,211543.000,A,3138.3781,S,06040.4517,W,2.04,309.98,051213,,,A*69
$GPRMC,211544.000,A,3138.3777,S,06040.4516,W,1.73,50.27,051213,,,A*5E
$GPRMC,211545.000,A,3138.3776,S,06040.4516,W,0.95,249.05,051213,,,A*6D
$GPRMC,211546.000,A,3138.3773,S,06040.4520,W,1.73,254.24,051213,,,A*68
$GPRMC,211547.000,A,3138.3772,S,06040.4525,W,2.37,256.28,051213,,,A*60
$GPRMC,211548.000,A,3138.3775,S,06040.4532,W,3.60,252.75,051213,,,A*61
$GPRMC,211549.000,A,3138.3781,S,06040.4540,W,2.77,251.72,051213,,,A*6D
$GPRMC,211550.000,A,3138.3780,S,06040.4547,W,2.27,250.76,051213,,,A*63
$GPRMC,211551.000,A,3138.3776,S,06040.4546,W,4.64,53.38,051213,,,A*50
$GPRMC,211552.000,A,3138.3770,S,06040.4545,W,1.76,48.30,051213,,,A*52
$GPRMC,211553.000,A,3138.3766,S,06040.4546,W,2.26,236.38,051213,,,A*62
$GPRMC,211554.000,A,3138.3770,S,06040.4552,W,3.33,233.88,051213,,,A*6C
$GPRMC,211555.000,A,3138.3774,S,06040.4560,W,2.05,236.14,051213,,,A*6C
$GPRMC,211556.000,A,3138.3776,S,06040.4567,W,1.06,306.45,051213,,,A*6C
$GPRMC,211557.000,A,3138.3778,S,06040.4570,W,0.40,306.45,051213,,,A*66
$GPRMC,211558.000,A,3138.3782,S,06040.4568,W,2.49,185.85,051213,,,A*6B
$GPRMC,211559.000,A,3138.3786,S,06040.4568,W,2.76,182.81,051213,,,A*61
$GPRMC,211600.000,A,3138.3789,S,06040.4566,W,1.58,139.63,051213,,,A*6C
$GPRMC,211601.000,A,3138.3791,S,06040.4565,W,1.38,142.53,051213,,,A*6E
$GPRMC,211602.000,A,3138.3794,S,06040.4565,W,1.05,144.32,051213,,,A*67
$GPRMC,211603.000,A,3138.3795,S,06040.4574,W,1.96,270.98,051213,,,A*69
$GPRMC,211604.000,A,3138.3797,S,06040.4577,W,2.19,155.38,051213,,,A*65
$GPRMC,211605.000,A,3138.3800,S,06040.4572,W,2.19,152.08,051213,,,A*64
$GPRMC,211606.000,A,3138.3802,S,06040.4568,W,2.47,151.13,051213,,,A*6C
$GPRMC,211607.000,A,3138.3808,S,06040.4567,W,1.86,155.03,051213,,,A*63
$GPRMC,211608.000,A,3138.3810,S,06040.4568,W,1.16,196.04,051213,,,A*6B
$GPRMC,211609.000,A,3138.3818,S,06040.4569,W,2.64,194.81,051213,,,A*6A
$GPRMC,211610.000,A,3138.3822,S,06040.4570,W,1.11,194.39,051213,,,A*61
$GPRMC,211611.000,A,3138.3821,S,06040.4568,W,1.27,80.03,051213,,,A*52
$GPRMC,211612.000,A,3138.3823,S,06040.4564,W,1.34,82.47,051213,,,A*5F
$GPRMC,211613.000,A,3138.3825,S,06040.4564,W,0.20,82.47,051213,,,A*5C
$GPRMC,211614.000,A,3138.3826,S,06040.4566,W,0.48,82.47,051213,,,A*54
$GPRMC,211615.000,A,3138.3827,S,06040.4569,W,0.64,256.22,051213,,,A*6D
$GPRMC,211616.000,A,3138.3828,S,06040.4571,W,0.11,256.22,051213,,,A*6A
$GPRMC,211617.000,A,3138.3828,S,06040.4571,W,0.08,256.22,051213,,,A*63
$GPRMC,211618.000,A,3138.3827,S,06040.4572,W,0.68,66.63,051213,,,A*52
$GPRMC,211619.000,A,3138.3828,S,06040.4572,W,0.60,66.63,051213,,,A*54
$GPRMC,211620.000,A,3138.3828,S,06040.4572,W,0.13,66.63,051213,,,A*5A
$GPRMC,211621.000,A,3138.3828,S,06040.4573,W,0.07,66.63,051213,,,A*5F
$GPRMC,211622.000,A,3138.3828,S,06040.4573,W,0.24,66.63,051213,,,A*5D
$GPRMC,211623.000,A,3138.3828,S,06040.4574,W,0.18,66.63,051213,,,A*54
$GPRMC,211624.000,A,3138.3827,S,06040.4574,W,0.12,66.63,051213,,,A*56
$GPRMC,211625.000,A,3138.3827,S,06040.4575,W,0.06,66.63,051213,,,A*53
$GPRMC,211626.000,A,3138.3827,S,06040.4575,W,0.04,66.63,051213,,,A*52
$GPRMC,211627.000,A,3138.3827,S,06040.4575,W,0.04,66.63,051213,,,A*53
$GPRMC,211628.000,A,3138.3828,S,06040.4575,W,0.01,66.63,051213,,,A*56
$GPRMC,211629.000,A,3138.3828,S,06040.4575,W,0.00,66.63,051213,,,A*56
$GPRMC,211630.000,A,3138.3828,S,06040.4575,W,0.01,66.63,051213,,,A*5F
$GPRMC,211631.000,A,3138.3828,S,06040.4575,W,0.00,66.63,051213,,,A*5F
$GPRMC,211632.000,A,3138.3828,S,06040.4574,W,0.03,66.63,051213,,,A*5E
$GPRMC,211633.000,A,3138.3828,S,06040.4574,W,0.12,66.63,051213,,,A*5F
$GPRMC,211634.000,A,3138.3828,S,06040.4574,W,0.18,66.63,051213,,,A*52
$GPRMC,211635.000,A,3138.3828,S,06040.4574,W,0.07,66.63,051213,,,A*5D
$GPRMC,211636.000,A,3138.3828,S,06040.4574,W,0.12,66.63,051213,,,A*5A
$GPRMC,211637.000,A,3138.3828,S,06040.4574,W,0.02,66.63,051213,,,A*5A
$GPRMC,211638.000,A,3138.3828,S,06040.4574,W,0.21,66.63,051213,,,A*54
$GPRMC,211639.000,A,3138.3828,S,06040.4574,W,1.19,66.63,051213,,,A*5F
$GPRMC,211640.000,A,3138.3825,S,06040.4570,W,1.74,60.65,051213,,,A*53
$GPRMC,211641.000,A,3138.3825,S,06040.4564,W,2.35,66.40,051213,,,A*50
$GPRMC,211642.000,A,3138.3829,S,06040.4556,W,3.84,72.31,051213,,,A*56
$GPRMC,211643.000,A,3138.3833,S,06040.4549,W,2.40,76.99,051213,,,A*5D
$GPRMC,211644.000,A,3138.3835,S,06040.4545,W,0.99,73.12,051213,,,A*50
$GPRMC,211645.000,A,3138.3833,S,06040.4542,W,1.39,56.52,051213,,,A*58
$GPRMC,211646.000,A,3138.3831,S,06040.4536,W,1.77,58.15,051213,,,A*5D
$GPRMC,211647.000,A,3138.3832,S,06040.4530,W,2.37,66.15,051213,,,A*53
$GPRMC,211648.000,A,3138.3836,S,06040.4526,W,2.61,73.64,051213,,,A*5E
$GPRMC,211649.000,A,3138.3838,S,06040.4522,W,1.67,77.68,051213,,,A*58
$GPRMC,211650.000,A,3138.3839,S,06040.4516,W,1.70,79.56,051213,,,A*53
$GPRMC,211651.000,A,3138.3835,S,06040.4509,W,1.63,39.58,051213,,,A*58
$GPRMC,211652.000,A,3138.3829,S,06040.4506,W,2.68,32.37,051213,,,A*53
$GPRMC,211653.000,A,3138.3825,S,06040.4503,W,0.41,32.37,051213,,,A*52
$GPRMC,211654.000,A,3138.3822,S,06040.4506,W,1.26,303.31,051213,,,A*60
$GPRMC,211655.000,A,3138.3819,S,06040.4504,W,1.27,9.88,051213,,,A*61
$GPRMC,211656.000,A,3138.3817,S,06040.4498,W,1.86,58.32,051213,,,A*56
$GPRMC,211657.000,A,3138.3813,S,06040.4495,W,2.10,57.36,051213,,,A*59
$GPRMC,211658.000,A,3138.3809,S,06040.4490,W,2.28,58.04,051213,,,A*5D
$GPRMC,211659.000,A,3138.3805,S,06040.4481,W,4.39,59.03,051213,,,A*50
$GPRMC,211700.000,A,3138.3799,S,06040.4478,W,2.50,316.13,051213,,,A*61
$GPRMC,211701.000,A,3138.3792,S,06040.4484,W,3.34,318.31,051213,,,A*65
$GPRMC,211702.000,A,3138.3786,S,06040.4481,W,2.37,47.14,051213,,,A*5A
$GPRMC,211703.000,A,3138.3783,S,06040.4477,W,2.03,45.90,051213,,,A*5E
$GPRMC,211704.000,A,3138.3780,S,06040.4478,W,0.82,322.72,051213,,,A*60
$GPRMC,211705.000,A,3138.3781,S,06040.4481,W,1.03,315.24,051213,,,A*69
$GPRMC,211706.000,A,3138.3782,S,06040.4486,W,1.76,309.43,051213,,,A*60
$GPRMC,211707.000,A,3138.3780,S,06040.4494,W,2.04,312.20,051213,,,A*69
$GPRMC,211708.000,A,3138.3776,S,06040.4500,W,1.68,315.20,051213,,,A*6D
$GPRMC,211709.000,A,3138.3773,S,06040.4505,W,1.73,311.43,051213,,,A*67
$GPRMC,211710.000,A,3138.3774,S,06040.4511,W,2.09,307.11,051213,,,A*63
$GPRMC,211711.000,A,3138.3778,S,06040.4514,W,2.07,302.15,051213,,,A*64
$GPRMC,211712.000,A,3138.3780,S,06040.4522,W,2.10,296.73,051213,,,A*6F
$GPRMC,211713.000,A,3138.3780,S,06040.4526,W,1.52,52.19,051213,,,A*59
$GPRMC,211714.000,A,3138.3775,S,06040.4530,W,0.71,74.38,051213,,,A*54
$GPRMC,211715.000,A,3138.3771,S,06040.4535,W,1.55,255.61,051213,,,A*6E
$GPRMC,211716.000,A,3138.3774,S,06040.4546,W,4.06,252.43,051213,,,A*68
$GPRMC,211717.000,A,3138.3778,S,06040.4555,W,1.92,251.26,051213,,,A*6F
$GPRMC,211718.000,A,3138.3777,S,06040.4560,W,2.29,356.34,051213,,,A*6F
$GPRMC,211719.000,A,3138.3773,S,06040.4561,W,0.31,356.34,051213,,,A*60
$GPRMC,211720.000,A,3138.3775,S,06040.4565,W,1.67,202.65,051213,,,A*6E
$GPRMC,211721.000,A,3138.3780,S,06040.4570,W,1.62,203.64,051213,,,A*64
$GPRMC,211722.000,A,3138.3784,S,06040.4572,W,1.07,205.08,051213,,,A*6E
$GPRMC,211723.000,A,3138.3786,S,06040.4577,W,1.79,207.20,051213,,,A*69
$GPRMC,211724.000,A,3138.3789,S,06040.4580,W,1.44,211.49,051213,,,A*6F
$GPRMC,211725.000,A,3138.3791,S,06040.4583,W,1.26,167.56,051213,,,A*6C
$GPRMC,211726.000,A,3138.3791,S,06040.4583,W,1.44,134.32,051213,,,A*6F
$GPRMC,211727.000,A,3138.3797,S,06040.4584,W,3.53,141.70,051213,,,A*6F
$GPRMC,211728.000,A,3138.3803,S,06040.4586,W,1.39,148.49,051213,,,A*6D
$GPRMC,211729.000,A,3138.3808,S,06040.4589,W,2.29,155.24,051213,,,A*6D
$GPRMC,211730.000,A,3138.3812,S,06040.4592,W,2.10,158.47,051213,,,A*66
$GPRMC,211731.000,A,3138.3816,S,06040.4590,W,1.62,155.78,051213,,,A*66
$GPRMC,211732.000,A,3138.3823,S,06040.4586,W,2.14,158.57,051213,,,A*66
$GPRMC,211733.000,A,3138.3823,S,06040.4585,W,0.19,158.57,051213,,,A*6B
$GPRMC,211734.000,A,3138.3824,S,06040.4584,W,0.45,158.57,051213,,,A*63
$GPRMC,211735.000,A,3138.3824,S,06040.4584,W,0.17,158.57,051213,,,A*65
$GPRMC,211736.000,A,3138.3822,S,06040.4583,W,1.98,353.50,051213,,,A*6F
$GPRMC,211737.000,A,3138.3822,S,06040.4583,W,0.04,353.50,051213,,,A*6A
$GPRMC,211738.000,A,3138.3823,S,06040.4582,W,0.03,353.50,051213,,,A*62
$GPRMC,211739.000,A,3138.3823,S,06040.4582,W,0.02,353.50,051213,,,A*62
$GPRMC,211740.000,A,3138.3824,S,06040.4582,W,0.02,353.50,051213,,,A*6B
$GPRMC,211741.000,A,3138.3824,S,06040.4582,W,0.02,353.50,051213,,,A*6A
