$GPRMC,213829.429,A,3138.3811,S,06040.4574,W,2.18,307.51,051213,,,A*60
$GPRMC,213831.000,A,3138.3819,S,06040.4549,W,0.53,307.51,051213,,,A*6D
$GPRMC,213832.000,A,3138.3814,S,06040.4547,W,1.23,32.58,051213,,,A*57
$GPRMC,213833.000,A,3138.3808,S,06040.4546,W,2.06,37.86,051213,,,A*58
$GPRMC,213834.000,A,3138.3802,S,06040.4543,W,2.30,32.52,051213,,,A*59
$GPRMC,213835.000,A,3138.3795,S,06040.4543,W,1.96,357.30,051213,,,A*62
$GPRMC,213836.000,A,3138.3792,S,06040.4546,W,1.25,287.08,051213,,,A*6C
$GPRMC,213837.000,A,3138.3792,S,06040.4552,W,1.56,280.32,051213,,,A*62
$GPRMC,213838.000,A,3138.3790,S,06040.4552,W,0.71,357.07,051213,,,A*66
$GPRMC,213839.000,A,3138.3791,S,06040.4550,W,0.91,107.97,051213,,,A*64
$GPRMC,213839.999,A,3138.3792,S,06040.4551,W,0.26,107.97,051213,,,A*63
$GPRMC,213841.000,A,3138.3791,S,06040.4556,W,1.14,294.05,051213,,,A*63
$GPRMC,213842.000,A,3138.3789,S,06040.4558,W,1.18,339.99,051213,,,A*68
$GPRMC,213843.000,A,3138.3790,S,06040.4555,W,0.84,78.48,051213,,,A*52
$GPRMC,213844.000,A,3138.3791,S,06040.4553,W,0.55,78.48,051213,,,A*5E
$GPRMC,213845.000,A,3138.3793,S,06040.4554,W,0.63,162.22,051213,,,A*69
$GPRMC,213846.000,A,3138.3793,S,06040.4560,W,1.31,265.41,051213,,,A*6A
$GPRMC,213847.000,A,3138.3787,S,06040.4559,W,1.76,13.33,051213,,,A*51
$GPRMC,213848.000,A,3138.3787,S,06040.4555,W,2.36,122.61,051213,,,A*61
$GPRMC,213849.000,A,3138.3792,S,06040.4550,W,2.66,144.18,051213,,,A*6A
$GPRMC,213850.000,A,3138.3799,S,06040.4546,W,2.65,159.32,051213,,,A*69
$GPRMC,213851.000,A,3138.3806,S,06040.4544,W,1.96,154.72,051213,,,A*65
$GPRMC,213852.000,A,3138.3811,S,06040.4541,W,1.89,144.76,051213,,,A*6E
$GPRMC,213853.000,A,3138.3815,S,06040.4537,W,1.52,116.56,051213,,,A*69
$GPRMC,213854.000,A,3138.3815,S,06040.4534,W,1.39,18.20,051213,,,A*5E
$GPRMC,213855.000,A,3138.3813,S,06040.4535,W,0.39,18.20,051213,,,A*59
$GPRMC,213856.000,A,3138.3814,S,06040.4537,W,0.88,230.12,051213,,,A*6C
$GPRMC,213857.000,A,3138.3816,S,06040.4540,W,0.59,216.69,051213,,,A*6B
$GPRMC,213858.000,A,3138.3815,S,06040.4538,W,1.01,61.87,051213,,,A*56
$GPRMC,213859.000,A,3138.3813,S,06040.4536,W,1.03,38.71,051213,,,A*58
$GPRMC,213900.000,A,3138.3810,S,06040.4537,W,1.67,337.06,051213,,,A*69
$GPRMC,213901.000,A,3138.3808,S,06040.4534,W,2.07,86.30,051213,,,A*5B
$GPRMC,213902.000,A,3138.3810,S,06040.4529,W,1.89,91.96,051213,,,A*52
$GPRMC,213903.000,A,3138.3814,S,06040.4529,W,1.64,209.21,051213,,,A*6B
$GPRMC,213904.000,A,3138.3816,S,06040.4534,W,1.97,213.68,051213,,,A*68
$GPRMC,213905.000,A,3138.3816,S,06040.4540,W,1.93,222.27,051213,,,A*67
$GPRMC,213906.000,A,3138.3816,S,06040.4542,W,0.65,118.47,051213,,,A*62
$GPRMC,213907.000,A,3138.3817,S,06040.4540,W,1.21,116.19,051213,,,A*64
$GPRMC,213908.000,A,3138.3816,S,06040.4537,W,0.83,107.31,051213,,,A*69
$GPRMC,213909.000,A,3138.3813,S,06040.4539,W,1.45,328.39,051213,,,A*6F
$GPRMC,213910.000,A,3138.3812,S,06040.4542,W,1.41,243.29,051213,,,A*63
$GPRMC,213911.000,A,3138.3815,S,06040.4544,W,1.11,167.52,051213,,,A*6F
$GPRMC,213912.000,A,3138.3812,S,06040.4541,W,1.43,53.13,051213,,,A*5A
$GPRMC,213913.000,A,3138.3809,S,06040.4536,W,2.44,38.35,051213,,,A*5C
$GPRMC,213914.000,A,3138.3804,S,06040.4532,W,2.21,33.29,051213,,,A*57
$GPRMC,213915.000,A,3138.3799,S,06040.4528,W,2.19,34.87,051213,,,A*5E
$GPRMC,213916.000,A,3138.3795,S,06040.4524,W,2.01,36.36,051213,,,A*5C
$GPRMC,213917.000,A,3138.3790,S,06040.4521,W,1.95,29.01,051213,,,A*59
$GPRMC,213918.000,A,3138.3787,S,06040.4518,W,1.02,29.97,051213,,,A*5B
$GPRMC,213919.000,A,3138.3788,S,06040.4516,W,1.81,155.44,051213,,,A*64
$GPRMC,213920.000,A,3138.3792,S,06040.4516,W,1.29,211.20,051213,,,A*66
$GPRMC,213921.000,A,3138.3791,S,06040.4520,W,2.38,322.59,051213,,,A*6D
$GPRMC,213922.000,A,3138.3789,S,06040.4523,W,0.51,322.59,051213,,,A*69
$GPRMC,213923.000,A,3138.3786,S,06040.4520,W,1.72,62.75,051213,,,A*5D
$GPRMC,213924.000,A,3138.3784,S,06040.4517,W,0.82,29.61,051213,,,A*58
$GPRMC,213925.000,A,3138.3787,S,06040.4519,W,1.07,213.35,051213,,,A*62
$GPRMC,213926.000,A,3138.3791,S,06040.4521,W,1.66,191.39,051213,,,A*6F
$GPRMC,213927.000,A,3138.3794,S,06040.4523,W,0.89,241.78,051213,,,A*62
$GPRMC,213928.000,A,3138.3792,S,06040.4525,W,1.94,344.77,051213,,,A*6B
$GPRMC,213929.000,A,3138.3789,S,06040.4527,W,0.62,325.19,051213,,,A*65
$GPRMC,213930.000,A,3138.3790,S,06040.4526,W,1.47,149.49,051213,,,A*6F
$GPRMC,213931.000,A,3138.3795,S,06040.4525,W,2.17,152.74,051213,,,A*6A
$GPRMC,213932.000,A,3138.3801,S,06040.4527,W,2.54,157.60,051213,,,A*6E
$GPRMC,213933.000,A,3138.3805,S,06040.4533,W,2.48,165.68,051213,,,A*6A
$GPRMC,213934.000,A,3138.3807,S,06040.4541,W,2.41,259.70,051213,,,A*66
$GPRMC,213935.000,A,3138.3808,S,06040.4548,W,1.33,258.56,051213,,,A*62
$GPRMC,213936.000,A,3138.3808,S,06040.4550,W,0.46,258.56,051213,,,A*6B
$GPRMC,213937.000,A,3138.3807,S,06040.4549,W,0.26,258.56,051213,,,A*6B
$GPRMC,213938.000,A,3138.3807,S,06040.4550,W,0.04,258.56,051213,,,A*6C
$GPRMC,213939.000,A,3138.3806,S,06040.4551,W,0.03,258.56,051213,,,A*6A
$GPRMC,213940.000,A,3138.3806,S,06040.4551,W,0.01,258.56,051213,,,A*66
$GPRMC,213941.000,A,3138.3806,S,06040.4551,W,0.02,258.56,051213,,,A*64
$GPRMC,213942.000,A,3138.3806,S,06040.4551,W,0.01,258.56,051213,,,A*64
$GPRMC,213943.000,A,3138.3806,S,06040.4551,W,0.01,258.56,051213,,,A*65
$GPRMC,213944.000,A,3138.3806,S,06040.4551,W,0.05,258.56,051213,,,A*66
$GPRMC,213945.000,A,3138.3807,S,06040.4551,W,0.04,258.56,051213,,,A*67
$GPRMC,213946.000,A,3138.3807,S,06040.4550,W,0.03,258.56,051213,,,A*62
$GPRMC,213947.000,A,3138.3807,S,06040.4550,W,0.05,258.56,051213,,,A*65
$GPRMC,213948.000,A,3138.3807,S,06040.4551,W,0.02,258.56,051213,,,A*6C
$GPRMC,213949.000,A,3138.3807,S,06040.4551,W,0.01,258.56,051213,,,A*6E
$GPRMC,213950.000,A,3138.3807,S,06040.4551,W,0.02,258.56,051213,,,A*65
$GPRMC,213951.000,A,3138.3807,S,06040.4551,W,0.03,258.56,051213,,,A*65
$GPRMC,213952.000,A,3138.3807,S,06040.4551,W,0.11,258.56,051213,,,A*65
$GPRMC,213953.000,A,3138.3807,S,06040.4551,W,0.20,258.56,051213,,,A*66
$GPRMC,213954.000,A,3138.3807,S,06040.4550,W,0.09,258.56,051213,,,A*6B
$GPRMC,213955.000,A,3138.3807,S,06040.4550,W,0.01,258.56,051213,,,A*62
$GPRMC,213956.000,A,3138.3807,S,06040.4550,W,0.02,258.56,051213,,,A*62
$GPRMC,213957.000,A,3138.3807,S,06040.4550,W,0.04,258.56,051213,,,A*65
$GPRMC,213958.000,A,3138.3807,S,06040.4550,W,0.53,258.56,051213,,,A*68
$GPRMC,213959.000,A,3138.3808,S,06040.4549,W,2.49,205.64,051213,,,A*6E
$GPRMC,214000.000,A,3138.3815,S,06040.4553,W,2.80,205.96,051213,,,A*63
$GPRMC,214001.000,A,3138.3822,S,06040.4557,W,2.36,205.28,051213,,,A*6A
$GPRMC,214002.000,A,3138.3828,S,06040.4560,W,2.64,204.52,051213,,,A*6C
$GPRMC,214003.000,A,3138.3830,S,06040.4560,W,1.22,22.15,051213,,,A*50
$GPRMC,214004.000,A,3138.3826,S,06040.4559,W,1.85,20.96,051213,,,A*5E
$GPRMC,214005.000,A,3138.3823,S,06040.4561,W,1.49,296.12,051213,,,A*62
$GPRMC,214006.000,A,3138.3824,S,06040.4565,W,1.52,290.84,051213,,,A*61
$GPRMC,214007.000,A,3138.3825,S,06040.4569,W,1.50,286.16,051213,,,A*63
$GPRMC,214008.000,A,3138.3827,S,06040.4568,W,1.68,76.74,051213,,,A*5D
$GPRMC,214009.000,A,3138.3825,S,06040.4562,W,1.75,75.20,051213,,,A*5A
$GPRMC,214010.000,A,3138.3823,S,06040.4560,W,0.98,347.54,051213,,,A*65
$GPRMC,214011.000,A,3138.3822,S,06040.4562,W,1.21,297.69,051213,,,A*66
$GPRMC,214012.000,A,3138.3818,S,06040.4564,W,2.00,302.23,051213,,,A*69
$GPRMC,214013.000,A,3138.3817,S,06040.4560,W,2.60,121.87,051213,,,A*68
$GPRMC,214014.000,A,3138.3824,S,06040.4558,W,3.26,128.82,051213,,,A*6B
$GPRMC,214015.000,A,3138.3828,S,06040.4561,W,1.04,306.10,051213,,,A*6B
$GPRMC,214016.000,A,3138.3824,S,06040.4559,W,1.21,19.21,051213,,,A*57
$GPRMC,214017.000,A,3138.3820,S,06040.4561,W,1.54,334.36,051213,,,A*61
$GPRMC,214018.000,A,3138.3815,S,06040.4566,W,2.38,333.75,051213,,,A*66
$GPRMC,214019.000,A,3138.3809,S,06040.4569,W,2.34,334.29,051213,,,A*67
$GPRMC,214020.000,A,3138.3803,S,06040.4572,W,2.30,335.51,051213,,,A*67
$GPRMC,214021.000,A,3138.3798,S,06040.4575,W,2.12,334.60,051213,,,A*6F
$GPRMC,214022.000,A,3138.3793,S,06040.4580,W,2.05,332.93,051213,,,A*61
$GPRMC,214023.000,A,3138.3789,S,06040.4581,W,1.65,13.71,051213,,,A*53
$GPRMC,214024.000,A,3138.3789,S,06040.4577,W,1.85,131.55,051213,,,A*64
$GPRMC,214025.000,A,3138.3791,S,06040.4574,W,0.30,131.55,051213,,,A*60
$GPRMC,214026.000,A,3138.3793,S,06040.4576,W,1.76,235.37,051213,,,A*63
$GPRMC,214027.000,A,3138.3794,S,06040.4580,W,1.53,241.70,051213,,,A*6B
$GPRMC,214028.000,A,3138.3790,S,06040.4583,W,1.80,350.44,051213,,,A*6B
$GPRMC,214029.000,A,3138.3788,S,06040.4582,W,1.01,103.76,051213,,,A*6E
$GPRMC,214030.000,A,3138.3792,S,06040.4581,W,1.74,183.30,051213,,,A*66
$GPRMC,214031.000,A,3138.3794,S,06040.4581,W,0.57,183.30,051213,,,A*61
$GPRMC,214032.000,A,3138.3793,S,06040.4582,W,1.80,2.38,051213,,,A*6D
$GPRMC,214033.000,A,3138.3791,S,06040.4579,W,1.25,86.72,051213,,,A*57
$GPRMC,214034.000,A,3138.3792,S,06040.4573,W,1.92,103.45,051213,,,A*6D
$GPRMC,214035.000,A,3138.3794,S,06040.4565,W,2.44,102.39,051213,,,A*6F
$GPRMC,214036.000,A,3138.3794,S,06040.4557,W,2.45,100.85,051213,,,A*69
$GPRMC,214037.000,A,3138.3793,S,06040.4547,W,2.50,99.99,051213,,,A*56
$GPRMC,214038.000,A,3138.3794,S,06040.4536,W,2.46,99.48,051213,,,A*53
$GPRMC,214039.000,A,3138.3794,S,06040.4532,W,0.18,99.48,051213,,,A*5F
$GPRMC,214040.000,A,3138.3795,S,06040.4533,W,1.07,234.31,051213,,,A*65
$GPRMC,214041.000,A,3138.3793,S,06040.4535,W,1.33,3.56,051213,,,A*64
$GPRMC,214042.000,A,3138.3790,S,06040.4532,W,1.56,74.74,051213,,,A*50
$GPRMC,214043.000,A,3138.3793,S,06040.4531,W,2.00,181.95,051213,,,A*65
$GPRMC,214044.000,A,3138.3798,S,06040.4531,W,1.34,180.56,051213,,,A*63
$GPRMC,214045.000,A,3138.3799,S,06040.4529,W,1.40,37.77,051213,,,A*57
$GPRMC,214046.000,A,3138.3797,S,06040.4529,W,0.35,37.77,051213,,,A*59
$GPRMC,214047.000,A,3138.3798,S,06040.4530,W,1.32,215.36,051213,,,A*6E
$GPRMC,214048.000,A,3138.3800,S,06040.4533,W,1.05,302.06,051213,,,A*6C
$GPRMC,214049.000,A,3138.3801,S,06040.4535,W,1.44,32.32,051213,,,A*58
$GPRMC,214050.000,A,3138.3795,S,06040.4534,W,1.72,342.72,051213,,,A*66
$GPRMC,214051.000,A,3138.3792,S,06040.4536,W,1.17,318.41,051213,,,A*6E
$GPRMC,214052.000,A,3138.3794,S,06040.4537,W,2.34,176.31,051213,,,A*65
$GPRMC,214053.000,A,3138.3799,S,06040.4534,W,1.70,117.36,051213,,,A*69
$GPRMC,214054.000,A,3138.3799,S,06040.4533,W,0.64,332.17,051213,,,A*6B
$GPRMC,214055.000,A,3138.3801,S,06040.4534,W,1.49,185.69,051213,,,A*6A
$GPRMC,214056.000,A,3138.3806,S,06040.4534,W,2.32,185.67,051213,,,A*6F
$GPRMC,214057.000,A,3138.3813,S,06040.4536,W,2.30,187.46,051213,,,A*6B
$GPRMC,214058.000,A,3138.3819,S,06040.4537,W,1.99,184.60,051213,,,A*68
$GPRMC,214059.000,A,3138.3824,S,06040.4535,W,1.07,131.30,051213,,,A*69
$GPRMC,214100.000,A,3138.3827,S,06040.4533,W,1.53,133.61,051213,,,A*66
$GPRMC,214101.000,A,3138.3828,S,06040.4531,W,1.53,353.93,051213,,,A*63
$GPRMC,214102.000,A,3138.3824,S,06040.4531,W,1.99,6.35,051213,,,A*65
$GPRMC,214103.000,A,3138.3821,S,06040.4535,W,2.06,263.69,051213,,,A*68
$GPRMC,214104.000,A,3138.3823,S,06040.4541,W,2.04,261.70,051213,,,A*66
$GPRMC,214105.000,A,3138.3825,S,06040.4544,W,0.73,212.63,051213,,,A*60
$GPRMC,214106.000,A,3138.3826,S,06040.4541,W,1.61,75.50,051213,,,A*54
$GPRMC,214107.000,A,3138.3824,S,06040.4537,W,1.95,41.43,051213,,,A*58
$GPRMC,214108.000,A,3138.3821,S,06040.4536,W,0.82,290.64,051213,,,A*6F
$GPRMC,214109.000,A,3138.3821,S,06040.4536,W,0.64,281.82,051213,,,A*6E
$GPRMC,214110.000,A,3138.3822,S,06040.4536,W,0.10,281.82,051213,,,A*66
$GPRMC,214111.000,A,3138.3821,S,06040.4537,W,0.11,281.82,051213,,,A*64
$GPRMC,214112.000,A,3138.3820,S,06040.4538,W,0.06,281.82,051213,,,A*6F
$GPRMC,214113.000,A,3138.3821,S,06040.4540,W,0.05,281.82,051213,,,A*63
$GPRMC,214114.000,A,3138.3821,S,06040.4540,W,0.20,281.82,051213,,,A*63
$GPRMC,214115.000,A,3138.3821,S,06040.4539,W,0.33,281.82,051213,,,A*6E
$GPRMC,214116.000,A,3138.3821,S,06040.4538,W,0.06,281.82,051213,,,A*6A
$GPRMC,214117.000,A,3138.3821,S,06040.4538,W,0.03,281.82,051213,,,A*6E
$GPRMC,214118.000,A,3138.3821,S,06040.4538,W,0.01,281.82,051213,,,A*63
$GPRMC,214119.000,A,3138.3821,S,06040.4538,W,0.06,281.82,051213,,,A*65
$GPRMC,214120.000,A,3138.3821,S,06040.4538,W,0.03,281.82,051213,,,A*6A
$GPRMC,214121.000,A,3138.3821,S,06040.4538,W,0.04,281.82,051213,,,A*6C
$GPRMC,214122.000,A,3138.3821,S,06040.4538,W,0.05,281.82,051213,,,A*6E
$GPRMC,214123.000,A,3138.3821,S,06040.4538,W,0.04,281.82,051213,,,A*6E
$GPRMC,214124.000,A,3138.3821,S,06040.4538,W,0.02,281.82,051213,,,A*6F
$GPRMC,214125.000,A,3138.3821,S,06040.4538,W,0.03,281.82,051213,,,A*6F
$GPRMC,214126.000,A,3138.3821,S,06040.4538,W,0.02,281.82,051213,,,A*6D
$GPRMC,214127.000,A,3138.3821,S,06040.4538,W,0.23,281.82,051213,,,A*6F
$GPRMC,214128.000,A,3138.3821,S,06040.4538,W,0.04,281.82,051213,,,A*65
$GPRMC,214129.000,A,3138.3821,S,06040.4538,W,0.02,281.82,051213,,,A*62
$GPRMC,214130.000,A,3138.3821,S,06040.4538,W,0.01,281.82,051213,,,A*69
$GPRMC,214131.000,A,3138.3821,S,06040.4538,W,0.00,281.82,051213,,,A*69
$GPRMC,214132.000,A,3138.3821,S,06040.4538,W,0.01,281.82,051213,,,A*6B
$GPRMC,214133.000,A,3138.3821,S,06040.4538,W,0.07,281.82,051213,,,A*6C
$GPRMC,214134.000,A,3138.3821,S,06040.4538,W,1.85,296.48,051213,,,A*60
$GPRMC,214135.000,A,3138.3819,S,06040.4544,W,2.32,291.15,051213,,,A*61
$GPRMC,214136.000,A,3138.3817,S,06040.4551,W,2.39,286.93,051213,,,A*6B
$GPRMC,214137.000,A,3138.3816,S,06040.4557,W,1.07,254.67,051213,,,A*67
$GPRMC,214138.000,A,3138.3815,S,06040.4557,W,1.32,66.85,051213,,,A*52
$GPRMC,214139.000,A,3138.3816,S,06040.4556,W,1.07,204.61,051213,,,A*6B
$GPRMC,214140.000,A,3138.3820,S,06040.4559,W,1.83,220.72,051213,,,A*67
$GPRMC,214141.000,A,3138.3820,S,06040.4561,W,1.31,350.35,051213,,,A*61
$GPRMC,214142.000,A,3138.3816,S,06040.4561,W,1.09,10.56,051213,,,A*5E
$GPRMC,214143.000,A,3138.3815,S,06040.4563,W,1.12,262.46,051213,,,A*62
$GPRMC,214144.000,A,3138.3816,S,06040.4562,W,1.78,112.74,051213,,,A*6E
$GPRMC,214145.000,A,3138.3819,S,06040.4557,W,1.77,114.40,051213,,,A*68
$GPRMC,214146.000,A,3138.3821,S,06040.4556,W,0.56,114.40,051213,,,A*63
$GPRMC,214147.000,A,3138.3818,S,06040.4558,W,2.17,340.07,051213,,,A*61
$GPRMC,214148.000,A,3138.3815,S,06040.4562,W,1.77,282.49,051213,,,A*6A
$GPRMC,214149.000,A,3138.3817,S,06040.4567,W,1.82,211.69,051213,,,A*6E
$GPRMC,214150.000,A,3138.3819,S,06040.4569,W,0.26,211.69,051213,,,A*69
$GPRMC,214151.000,A,3138.3818,S,06040.4566,W,1.38,100.47,051213,,,A*67
$GPRMC,214152.000,A,3138.3817,S,06040.4563,W,0.93,6.61,051213,,,A*6D
$GPRMC,214153.000,A,3138.3817,S,06040.4565,W,1.14,230.53,051213,,,A*62
$GPRMC,214154.000,A,3138.3822,S,06040.4571,W,2.36,228.57,051213,,,A*68
$GPRMC,214155.000,A,3138.3826,S,06040.4576,W,1.78,227.89,051213,,,A*6F
$GPRMC,214156.000,A,3138.3829,S,06040.4580,W,1.74,236.36,051213,,,A*62
$GPRMC,214157.000,A,3138.3832,S,06040.4585,W,1.67,235.83,051213,,,A*63
$GPRMC,214158.000,A,3138.3834,S,06040.4586,W,0.90,127.72,051213,,,A*6E
$GPRMC,214159.000,A,3138.3833,S,06040.4583,W,0.65,80.45,051213,,,A*5F
$GPRMC,214200.000,A,3138.3832,S,06040.4585,W,1.15,276.98,051213,,,A*6A
$GPRMC,214201.000,A,3138.3833,S,06040.4588,W,0.71,271.07,051213,,,A*65
$GPRMC,214202.000,A,3138.3834,S,06040.4590,W,0.98,270.30,051213,,,A*6A
$GPRMC,214203.000,A,3138.3833,S,06040.4591,W,1.24,44.33,051213,,,A*5D
$GPRMC,214204.000,A,3138.3829,S,06040.4587,W,1.45,44.98,051213,,,A*50
$GPRMC,214205.000,A,3138.3827,S,06040.4586,W,0.64,300.86,051213,,,A*60
$GPRMC,214206.000,A,3138.3828,S,06040.4588,W,1.03,213.85,051213,,,A*62
$GPRMC,214207.000,A,3138.3831,S,06040.4588,W,0.66,184.90,051213,,,A*60
$GPRMC,214208.000,A,3138.3831,S,06040.4586,W,1.29,54.06,051213,,,A*58
$GPRMC,214209.000,A,3138.3831,S,06040.4583,W,0.62,139.33,051213,,,A*6E
$GPRMC,214210.000,A,3138.3830,S,06040.4584,W,1.55,314.74,051213,,,A*6B
$GPRMC,214211.000,A,3138.3827,S,06040.4587,W,1.52,339.91,051213,,,A*6C
$GPRMC,214212.000,A,3138.3825,S,06040.4586,W,1.02,104.35,051213,,,A*6B
$GPRMC,214213.000,A,3138.3829,S,06040.4585,W,2.18,184.33,051213,,,A*63
$GPRMC,214214.000,A,3138.3831,S,06040.4588,W,1.39,295.80,051213,,,A*6B
$GPRMC,214215.000,A,3138.3829,S,06040.4587,W,2.43,35.25,051213,,,A*55
$GPRMC,214216.000,A,3138.3824,S,06040.4582,W,2.35,45.78,051213,,,A*50
$GPRMC,214217.000,A,3138.3820,S,06040.4576,W,2.00,44.89,051213,,,A*57
$GPRMC,214218.000,A,3138.3815,S,06040.4571,W,2.54,43.83,051213,,,A*55
$GPRMC,214219.000,A,3138.3808,S,06040.4569,W,2.24,40.91,051213,,,A*56
$GPRMC,214220.000,A,3138.3802,S,06040.4567,W,2.21,38.67,051213,,,A*5B
$GPRMC,214221.000,A,3138.3797,S,06040.4565,W,1.99,36.67,051213,,,A*55
$GPRMC,214222.000,A,3138.3791,S,06040.4564,W,1.98,33.90,051213,,,A*5D
$GPRMC,214223.000,A,3138.3785,S,06040.4564,W,1.81,348.27,051213,,,A*62
$GPRMC,214224.000,A,3138.3783,S,06040.4562,W,1.11,84.65,051213,,,A*59
$GPRMC,214225.000,A,3138.3785,S,06040.4559,W,1.42,176.49,051213,,,A*62
$GPRMC,214226.000,A,3138.3785,S,06040.4562,W,1.22,304.28,051213,,,A*6F
$GPRMC,214227.000,A,3138.3784,S,06040.4564,W,1.19,13.20,051213,,,A*5C
$GPRMC,214228.000,A,3138.3784,S,06040.4560,W,1.17,20.97,051213,,,A*55
$GPRMC,214229.000,A,3138.3785,S,06040.4558,W,0.46,20.97,051213,,,A*5B
$GPRMC,214230.000,A,3138.3785,S,06040.4560,W,0.83,274.69,051213,,,A*63
$GPRMC,214231.000,A,3138.3785,S,06040.4564,W,1.25,275.58,051213,,,A*68
$GPRMC,214232.000,A,3138.3787,S,06040.4566,W,1.62,270.66,051213,,,A*60
$GPRMC,214233.000,A,3138.3788,S,06040.4568,W,0.50,270.66,051213,,,A*60
$GPRMC,214234.000,A,3138.3784,S,06040.4567,W,1.37,17.05,051213,,,A*52
$GPRMC,214235.000,A,3138.3781,S,06040.4567,W,0.99,338.21,051213,,,A*6B
$GPRMC,214236.000,A,3138.3783,S,06040.4562,W,2.07,112.98,051213,,,A*62
$GPRMC,214237.000,A,3138.3786,S,06040.4559,W,1.80,119.81,051213,,,A*61
$GPRMC,214238.000,A,3138.3790,S,06040.4560,W,0.30,119.81,051213,,,A*69
$GPRMC,214239.000,A,3138.3785,S,06040.4559,W,1.98,11.07,051213,,,A*52
$GPRMC,214240.000,A,3138.3784,S,06040.4557,W,0.76,126.61,051213,,,A*67
$GPRMC,214241.000,A,3138.3787,S,06040.4557,W,1.86,134.48,051213,,,A*63
$GPRMC,214242.000,A,3138.3789,S,06040.4563,W,2.67,270.12,051213,,,A*69
$GPRMC,214243.000,A,3138.3790,S,06040.4569,W,0.93,266.28,051213,,,A*6D
$GPRMC,214244.000,A,3138.3789,S,06040.4569,W,1.70,27.21,051213,,,A*50
$GPRMC,214245.000,A,3138.3787,S,06040.4567,W,0.12,27.21,051213,,,A*54
$GPRMC,214246.000,A,3138.3789,S,06040.4562,W,1.84,119.52,051213,,,A*6A
$GPRMC,214247.000,A,3138.3791,S,06040.4557,W,1.49,121.06,051213,,,A*6F
$GPRMC,214248.000,A,3138.3794,S,06040.4554,W,1.45,173.31,051213,,,A*69
$GPRMC,214249.000,A,3138.3795,S,06040.4554,W,0.73,39.63,051213,,,A*55
$GPRMC,214250.000,A,3138.3796,S,06040.4556,W,2.17,247.12,051213,,,A*61
$GPRMC,214251.000,A,3138.3796,S,06040.4563,W,1.63,249.70,051213,,,A*6C
$GPRMC,214252.000,A,3138.3798,S,06040.4566,W,1.24,212.22,051213,,,A*6E
$GPRMC,214253.000,A,3138.3802,S,06040.4562,W,1.54,134.42,051213,,,A*61
$GPRMC,214254.000,A,3138.3805,S,06040.4556,W,1.94,110.77,051213,,,A*6A
$GPRMC,214255.000,A,3138.3808,S,06040.4553,W,0.80,116.75,051213,,,A*63
$GPRMC,214256.000,A,3138.3808,S,06040.4552,W,0.03,116.75,051213,,,A*6A
$GPRMC,214257.000,A,3138.3809,S,06040.4552,W,0.72,330.80,051213,,,A*60
$GPRMC,214258.000,A,3138.3809,S,06040.4552,W,0.44,330.80,051213,,,A*6A
$GPRMC,214259.000,A,3138.3810,S,06040.4552,W,0.64,217.67,051213,,,A*6C
$GPRMC,214300.000,A,3138.3812,S,06040.4553,W,0.12,217.67,051213,,,A*63
$GPRMC,214301.000,A,3138.3812,S,06040.4553,W,0.11,217.67,051213,,,A*61
$GPRMC,214302.000,A,3138.3812,S,06040.4553,W,0.13,217.67,051213,,,A*60
$GPRMC,214303.000,A,3138.3812,S,06040.4554,W,0.15,217.67,051213,,,A*60
$GPRMC,214304.000,A,3138.3812,S,06040.4554,W,0.01,217.67,051213,,,A*62
$GPRMC,214305.000,A,3138.3812,S,06040.4554,W,0.20,217.67,051213,,,A*60
$GPRMC,214306.000,A,3138.3811,S,06040.4554,W,0.03,217.67,051213,,,A*61
$GPRMC,214307.000,A,3138.3811,S,06040.4554,W,0.10,217.67,051213,,,A*62
$GPRMC,214308.000,A,3138.3811,S,06040.4554,W,0.05,217.67,051213,,,A*69
$GPRMC,214309.000,A,3138.3811,S,06040.4554,W,0.03,217.67,051213,,,A*6E
$GPRMC,214310.000,A,3138.3811,S,06040.4554,W,0.01,217.67,051213,,,A*64
$GPRMC,214311.000,A,3138.3811,S,06040.4554,W,0.02,217.67,051213,,,A*66
$GPRMC,214312.000,A,3138.3811,S,06040.4554,W,0.03,217.67,051213,,,A*64
$GPRMC,214313.000,A,3138.3811,S,06040.4554,W,0.05,217.67,051213,,,A*63
$GPRMC,214314.000,A,3138.3811,S,06040.4554,W,2.30,217.67,051213,,,A*60
$GPRMC,214315.000,A,3138.3816,S,06040.4548,W,2.51,128.49,051213,,,A*6F
$GPRMC,214316.000,A,3138.3821,S,06040.4541,W,2.96,129.03,051213,,,A*65
$GPRMC,214317.000,A,3138.3825,S,06040.4534,W,2.34,127.81,051213,,,A*6E
$GPRMC,214318.000,A,3138.3824,S,06040.4531,W,0.56,127.81,051213,,,A*63
$GPRMC,214319.000,A,3138.3823,S,06040.4528,W,1.30,53.17,051213,,,A*51
$GPRMC,214320.000,A,3138.3824,S,06040.4524,W,1.55,60.72,051213,,,A*50
$GPRMC,214321.000,A,3138.3827,S,06040.4526,W,2.89,247.78,051213,,,A*6F
$GPRMC,214322.000,A,3138.3827,S,06040.4531,W,1.02,332.01,051213,,,A*67
$GPRMC,214323.000,A,3138.3822,S,06040.4528,W,2.10,64.27,051213,,,A*5F
$GPRMC,214324.000,A,3138.3823,S,06040.4523,W,1.68,139.30,051213,,,A*61
$GPRMC,214325.000,A,3138.3824,S,06040.4520,W,1.73,349.09,051213,,,A*61
$GPRMC,214326.000,A,3138.3822,S,06040.4522,W,1.01,304.59,051213,,,A*6F
$GPRMC,214327.000,A,3138.3824,S,06040.4523,W,1.53,187.98,051213,,,A*6A
$GPRMC,214328.000,A,3138.3827,S,06040.4520,W,1.60,139.27,051213,,,A*64
$GPRMC,214329.000,A,3138.3829,S,06040.4517,W,1.20,88.32,051213,,,A*54
$GPRMC,214330.000,A,3138.3831,S,06040.4516,W,1.16,205.68,051213,,,A*69
$GPRMC,214331.000,A,3138.3830,S,06040.4520,W,1.42,309.41,051213,,,A*6B
$GPRMC,214332.000,A,3138.3826,S,06040.4523,W,2.87,312.75,051213,,,A*6B
$GPRMC,214333.000,A,3138.3825,S,06040.4522,W,1.67,130.06,051213,,,A*63
$GPRMC,214334.000,A,3138.3826,S,06040.4519,W,1.16,129.19,051213,,,A*6F
$GPRMC,214335.000,A,3138.3829,S,06040.4514,W,2.58,128.45,051213,,,A*6D
$GPRMC,214336.000,A,3138.3833,S,06040.4513,W,1.99,221.77,051213,,,A*67
$GPRMC,214337.000,A,3138.3832,S,06040.4516,W,2.04,345.80,051213,,,A*6E
$GPRMC,214338.000,A,3138.3826,S,06040.4519,W,2.80,344.54,051213,,,A*6F
$GPRMC,214339.000,A,3138.3819,S,06040.4521,W,2.76,347.15,051213,,,A*66
$GPRMC,214340.000,A,3138.3812,S,06040.4524,W,2.79,341.39,051213,,,A*61
$GPRMC,214341.000,A,3138.3806,S,06040.4528,W,2.57,338.87,051213,,,A*6E
$GPRMC,214342.000,A,3138.3799,S,06040.4531,W,2.57,333.66,051213,,,A*68
$GPRMC,214343.000,A,3138.3793,S,06040.4535,W,2.40,331.68,051213,,,A*6D
$GPRMC,214344.000,A,3138.3788,S,06040.4539,W,2.14,325.30,051213,,,A*65
$GPRMC,214345.000,A,3138.3786,S,06040.4544,W,1.54,267.82,051213,,,A*69
$GPRMC,214346.000,A,3138.3786,S,06040.4549,W,0.92,249.11,051213,,,A*6A
$GPRMC,214347.000,A,3138.3785,S,06040.4548,W,1.42,84.00,051213,,,A*56
$GPRMC,214348.000,A,3138.3783,S,06040.4545,W,1.65,32.74,051213,,,A*59
$GPRMC,214349.000,A,3138.3784,S,06040.4543,W,2.06,157.96,051213,,,A*61
$GPRMC,214350.000,A,3138.3787,S,06040.4540,W,0.97,121.21,051213,,,A*6E
$GPRMC,214351.000,A,3138.3789,S,06040.4547,W,1.77,263.91,051213,,,A*67
$GPRMC,214352.000,A,3138.3787,S,06040.4550,W,1.56,270.03,051213,,,A*66
$GPRMC,214353.000,A,3138.3785,S,06040.4547,W,1.88,89.10,051213,,,A*56
$GPRMC,214354.000,A,3138.3785,S,06040.4541,W,2.10,88.40,051213,,,A*51
$GPRMC,214355.000,A,3138.3786,S,06040.4540,W,1.79,233.20,051213,,,A*6A
$GPRMC,214356.000,A,3138.3789,S,06040.4544,W,1.86,232.32,051213,,,A*60
$GPRMC,214357.000,A,3138.3792,S,06040.4545,W,1.04,131.67,051213,,,A*60
$GPRMC,214358.000,A,3138.3791,S,06040.4545,W,2.01,339.74,051213,,,A*62
$GPRMC,214359.000,A,3138.3788,S,06040.4550,W,2.23,334.39,051213,,,A*6B
$GPRMC,214400.000,A,3138.3786,S,06040.4558,W,2.30,329.13,051213,,,A*60
$GPRMC,214401.000,A,3138.3786,S,06040.4564,W,1.61,324.44,051213,,,A*66
$GPRMC,214402.000,A,3138.3784,S,06040.4569,W,1.81,270.60,051213,,,A*62
$GPRMC,214403.000,A,3138.3786,S,06040.4572,W,0.95,153.25,051213,,,A*6C
$GPRMC,214404.000,A,3138.3786,S,06040.4570,W,0.39,153.25,051213,,,A*6F
$GPRMC,214405.000,A,3138.3785,S,06040.4571,W,0.33,153.25,051213,,,A*66
$GPRMC,214406.000,A,3138.3785,S,06040.4571,W,0.15,153.25,051213,,,A*61
$GPRMC,214407.000,A,3138.3784,S,06040.4566,W,1.30,93.50,051213,,,A*5E
$GPRMC,214408.000,A,3138.3788,S,06040.4562,W,2.18,98.34,051213,,,A*59
$GPRMC,214409.000,A,3138.3790,S,06040.4563,W,1.72,268.77,051213,,,A*65
$GPRMC,214410.000,A,3138.3790,S,06040.4565,W,1.36,23.84,051213,,,A*5A
$GPRMC,214411.000,A,3138.3791,S,06040.4561,W,1.35,31.83,051213,,,A*59
$GPRMC,214412.000,A,3138.3793,S,06040.4566,W,1.37,235.49,051213,,,A*6D
$GPRMC,214413.000,A,3138.3796,S,06040.4568,W,1.35,231.24,051213,,,A*6A
$GPRMC,214414.000,A,3138.3797,S,06040.4570,W,0.91,225.33,051213,,,A*69
$GPRMC,214415.000,A,3138.3797,S,06040.4570,W,0.12,225.33,051213,,,A*63
$GPRMC,214416.000,A,3138.3799,S,06040.4571,W,0.76,219.51,051213,,,A*66
$GPRMC,214417.000,A,3138.3800,S,06040.4571,W,0.77,215.48,051213,,,A*6D
$GPRMC,214418.000,A,3138.3799,S,06040.4571,W,0.21,215.48,051213,,,A*6E
$GPRMC,214419.000,A,3138.3799,S,06040.4571,W,0.17,215.48,051213,,,A*6A
$GPRMC,214420.000,A,3138.3798,S,06040.4572,W,0.21,213.41,051213,,,A*68
$GPRMC,214421.000,A,3138.3797,S,06040.4572,W,0.18,213.63,051213,,,A*6C
$GPRMC,214422.000,A,3138.3798,S,06040.4572,W,0.09,213.72,051213,,,A*60
$GPRMC,214423.000,A,3138.3797,S,06040.4572,W,0.24,213.72,051213,,,A*61
$GPRMC,214424.000,A,3138.3798,S,06040.4572,W,0.33,213.72,051213,,,A*6F
$GPRMC,214425.000,A,3138.3799,S,06040.4571,W,0.44,213.72,051213,,,A*6C
$GPRMC,214426.000,A,3138.3799,S,06040.4570,W,1.07,294.78,051213,,,A*6D
$GPRMC,214427.000,A,3138.3798,S,06040.4571,W,0.17,294.78,051213,,,A*6C
$GPRMC,214428.000,A,3138.3798,S,06040.4571,W,0.11,294.78,051213,,,A*65
$GPRMC,214429.000,A,3138.3798,S,06040.4571,W,0.11,294.78,051213,,,A*64
$GPRMC,214430.000,A,3138.3798,S,06040.4571,W,0.06,294.78,051213,,,A*6A
$GPRMC,214431.000,A,3138.3798,S,06040.4571,W,0.13,294.78,051213,,,A*6F
$GPRMC,214432.000,A,3138.3798,S,06040.4571,W,1.90,173.82,051213,,,A*69
$GPRMC,214433.000,A,3138.3805,S,06040.4571,W,2.87,185.49,051213,,,A*68
$GPRMC,214434.000,A,3138.3813,S,06040.4572,W,2.80,190.35,051213,,,A*63
$GPRMC,214435.000,A,3138.3819,S,06040.4573,W,2.38,189.40,051213,,,A*60
$GPRMC,214436.000,A,3138.3824,S,06040.4573,W,1.85,187.55,051213,,,A*62
$GPRMC,214437.000,A,3138.3825,S,06040.4575,W,1.82,307.63,051213,,,A*6C
$GPRMC,214438.000,A,3138.3823,S,06040.4579,W,1.05,309.13,051213,,,A*6F
$GPRMC,214439.000,A,3138.3820,S,06040.4579,W,0.45,309.13,051213,,,A*68
$GPRMC,214440.000,A,3138.3821,S,06040.4575,W,1.12,64.96,051213,,,A*5D
$GPRMC,214441.000,A,3138.3816,S,06040.4573,W,1.74,59.25,051213,,,A*58
$GPRMC,214442.000,A,3138.3814,S,06040.4575,W,1.70,249.73,051213,,,A*6B
$GPRMC,214443.000,A,3138.3813,S,06040.4577,W,1.69,353.22,051213,,,A*69
$GPRMC,214444.000,A,3138.3809,S,06040.4575,W,1.64,51.80,051213,,,A*53
$GPRMC,214445.000,A,3138.3811,S,06040.4574,W,2.03,199.56,051213,,,A*66
$GPRMC,214446.000,A,3138.3815,S,06040.4572,W,2.58,102.80,051213,,,A*60
$GPRMC,214447.000,A,3138.3817,S,06040.4566,W,1.68,106.09,051213,,,A*63
$GPRMC,214448.000,A,3138.3819,S,06040.4566,W,1.49,309.97,051213,,,A*6B
$GPRMC,214449.000,A,3138.3819,S,06040.4568,W,0.86,187.23,051213,,,A*6D
$GPRMC,214450.000,A,3138.3817,S,06040.4565,W,1.73,179.80,051213,,,A*65
$GPRMC,214451.000,A,3138.3816,S,06040.4559,W,2.36,56.08,051213,,,A*54
$GPRMC,214452.000,A,3138.3813,S,06040.4552,W,2.12,56.65,051213,,,A*54
$GPRMC,214453.000,A,3138.3811,S,06040.4545,W,2.16,58.39,051213,,,A*52
$GPRMC,214454.000,A,3138.3809,S,06040.4538,W,2.20,60.56,051213,,,A*51
$GPRMC,214455.000,A,3138.3808,S,06040.4531,W,2.40,62.63,051213,,,A*5A
$GPRMC,214456.000,A,3138.3806,S,06040.4523,W,2.00,63.32,051213,,,A*55
$GPRMC,214457.000,A,3138.3804,S,06040.4521,W,1.03,292.64,051213,,,A*6B
$GPRMC,214458.000,A,3138.3806,S,06040.4523,W,1.11,287.11,051213,,,A*61
$GPRMC,214459.000,A,3138.3806,S,06040.4522,W,0.74,43.61,051213,,,A*5E
$GPRMC,214500.000,A,3138.3803,S,06040.4522,W,1.30,40.53,051213,,,A*55
$GPRMC,214501.000,A,3138.3802,S,06040.4519,W,1.26,43.12,051213,,,A*5C
$GPRMC,214502.000,A,3138.3803,S,06040.4516,W,1.31,51.09,051213,,,A*5E
$GPRMC,214503.000,A,3138.3804,S,06040.4517,W,1.10,269.44,051213,,,A*6A
$GPRMC,214504.000,A,3138.3805,S,06040.4522,W,1.57,275.71,051213,,,A*62
$GPRMC,214505.000,A,3138.3805,S,06040.4524,W,0.93,83.37,051213,,,A*55
$GPRMC,214506.000,A,3138.3803,S,06040.4522,W,1.19,25.74,051213,,,A*5E
$GPRMC,214507.000,A,3138.3801,S,06040.4522,W,0.73,331.43,051213,,,A*62
$GPRMC,214508.000,A,3138.3802,S,06040.4521,W,1.80,120.53,051213,,,A*63
$GPRMC,214509.000,A,3138.3805,S,06040.4520,W,1.25,217.95,051213,,,A*66
$GPRMC,214510.000,A,3138.3806,S,06040.4523,W,1.32,250.79,051213,,,A*69
$GPRMC,214511.000,A,3138.3807,S,06040.4526,W,0.40,250.79,051213,,,A*68
$GPRMC,214512.000,A,3138.3806,S,06040.4525,W,0.73,72.21,051213,,,A*56
$GPRMC,214513.000,A,3138.3804,S,06040.4525,W,1.40,65.60,051213,,,A*57
$GPRMC,214514.000,A,3138.3803,S,06040.4522,W,1.81,69.32,051213,,,A*56
$GPRMC,214515.000,A,3138.3805,S,06040.4520,W,1.06,191.43,051213,,,A*6C
$GPRMC,214516.000,A,3138.3806,S,06040.4525,W,2.56,282.55,051213,,,A*69
$GPRMC,214517.000,A,3138.3803,S,06040.4532,W,2.54,310.52,051213,,,A*64
$GPRMC,214518.000,A,3138.3799,S,06040.4538,W,2.12,315.07,051213,,,A*6A
$GPRMC,214519.000,A,3138.3795,S,06040.4543,W,1.95,311.60,051213,,,A*62
$GPRMC,214520.000,A,3138.3792,S,06040.4546,W,1.47,314.50,051213,,,A*63
$GPRMC,214521.000,A,3138.3791,S,06040.4546,W,0.91,138.31,051213,,,A*60
$GPRMC,214522.000,A,3138.3792,S,06040.4545,W,0.27,138.31,051213,,,A*6E
$GPRMC,214523.000,A,3138.3793,S,06040.4545,W,0.20,138.31,051213,,,A*69
$GPRMC,214524.000,A,3138.3795,S,06040.4546,W,1.27,214.74,051213,,,A*61
$GPRMC,214525.000,A,3138.3797,S,06040.4549,W,1.44,252.08,051213,,,A*61
$GPRMC,214526.000,A,3138.3797,S,06040.4551,W,1.08,1.82,051213,,,A*65
$GPRMC,214527.000,A,3138.3796,S,06040.4549,W,1.66,52.90,051213,,,A*51
$GPRMC,214528.000,A,3138.3795,S,06040.4546,W,1.10,202.92,051213,,,A*66
$GPRMC,214529.000,A,3138.3799,S,06040.4546,W,1.34,164.87,051213,,,A*6A
$GPRMC,214530.000,A,3138.3800,S,06040.4547,W,0.93,293.25,051213,,,A*63
$GPRMC,214531.000,A,3138.3799,S,06040.4548,W,0.75,56.67,051213,,,A*57
$GPRMC,214532.000,A,3138.3799,S,06040.4546,W,0.72,61.48,051213,,,A*54
$GPRMC,214533.000,A,3138.3800,S,06040.4545,W,0.71,186.96,051213,,,A*61
$GPRMC,214534.000,A,3138.3800,S,06040.4546,W,0.77,297.83,051213,,,A*64
$GPRMC,214535.000,A,3138.3800,S,06040.4547,W,0.12,297.83,051213,,,A*67
$GPRMC,214536.000,A,3138.3799,S,06040.4548,W,0.14,297.83,051213,,,A*62
$GPRMC,214537.000,A,3138.3799,S,06040.4548,W,0.09,297.83,051213,,,A*6F
$GPRMC,214538.000,A,3138.3799,S,06040.4548,W,0.05,297.83,051213,,,A*6C
