$GPRMC,212254.492,A,3138.3810,S,06040.4550,W,1.34,167.84,051213,,,A*67
$GPRMC,212255.490,A,3138.3817,S,06040.4562,W,0.90,143.68,051213,,,A*69
$GPRMC,212256.491,A,3138.3820,S,06040.4569,W,0.58,143.68,051213,,,A*60
$GPRMC,212257.491,A,3138.3821,S,06040.4571,W,0.33,143.68,051213,,,A*64
$GPRMC,212258.492,A,3138.3820,S,06040.4572,W,0.12,143.68,051213,,,A*69
$GPRMC,212259.493,A,3138.3817,S,06040.4576,W,0.05,143.68,051213,,,A*6F
$GPRMC,212300.494,A,3138.3816,S,06040.4575,W,0.14,143.68,051213,,,A*67
$GPRMC,212301.495,A,3138.3815,S,06040.4576,W,0.11,143.68,051213,,,A*62
$GPRMC,212302.497,A,3138.3818,S,06040.4578,W,0.16,143.68,051213,,,A*67
$GPRMC,212303.500,A,3138.3815,S,06040.4566,W,0.81,101.13,051213,,,A*6F
$GPRMC,212305.000,A,3138.3817,S,06040.4566,W,0.94,88.37,051213,,,A*5C
$GPRMC,212306.000,A,3138.3818,S,06040.4565,W,1.26,93.56,051213,,,A*56
$GPRMC,212307.000,A,3138.3820,S,06040.4564,W,0.99,89.24,051213,,,A*56
$GPRMC,212308.000,A,3138.3822,S,06040.4561,W,1.23,97.45,051213,,,A*56
$GPRMC,212309.000,A,3138.3824,S,06040.4559,W,0.79,86.91,051213,,,A*5D
$GPRMC,212310.000,A,3138.3826,S,06040.4553,W,1.70,111.79,051213,,,A*6C
$GPRMC,212311.000,A,3138.3826,S,06040.4547,W,0.95,93.18,051213,,,A*5E
$GPRMC,212312.000,A,3138.3825,S,06040.4543,W,0.92,86.70,051213,,,A*57
$GPRMC,212313.000,A,3138.3825,S,06040.4540,W,1.15,101.29,051213,,,A*69
$GPRMC,212314.000,A,3138.3825,S,06040.4538,W,0.33,101.29,051213,,,A*64
$GPRMC,212315.000,A,3138.3825,S,06040.4537,W,0.91,99.81,051213,,,A*50
$GPRMC,212316.000,A,3138.3826,S,06040.4535,W,0.78,100.26,051213,,,A*69
$GPRMC,212317.000,A,3138.3826,S,06040.4534,W,0.30,100.26,051213,,,A*65
$GPRMC,212318.000,A,3138.3827,S,06040.4532,W,1.32,98.77,051213,,,A*5A
$GPRMC,212319.000,A,3138.3828,S,06040.4530,W,0.22,98.77,051213,,,A*56
$GPRMC,212320.000,A,3138.3828,S,06040.4529,W,0.42,98.77,051213,,,A*52
$GPRMC,212321.000,A,3138.3828,S,06040.4526,W,1.39,101.49,051213,,,A*6D
$GPRMC,212322.000,A,3138.3829,S,06040.4524,W,0.16,101.49,051213,,,A*61
$GPRMC,212323.000,A,3138.3829,S,06040.4523,W,0.25,101.49,051213,,,A*67
$GPRMC,212324.000,A,3138.3829,S,06040.4521,W,1.26,98.58,051213,,,A*51
$GPRMC,212325.000,A,3138.3828,S,06040.4519,W,0.20,98.58,051213,,,A*5D
$GPRMC,212326.000,A,3138.3828,S,06040.4518,W,0.55,98.58,051213,,,A*5D
$GPRMC,212327.000,A,3138.3828,S,06040.4516,W,0.95,85.00,051213,,,A*5F
$GPRMC,212328.000,A,3138.3828,S,06040.4515,W,0.17,85.00,051213,,,A*59
$GPRMC,212329.000,A,3138.3828,S,06040.4516,W,0.38,85.00,051213,,,A*56
$GPRMC,212330.000,A,3138.3825,S,06040.4516,W,1.39,77.69,051213,,,A*51
$GPRMC,212331.000,A,3138.3823,S,06040.4516,W,0.37,77.69,051213,,,A*59
$GPRMC,212332.000,A,3138.3822,S,06040.4517,W,0.84,359.84,051213,,,A*6E
$GPRMC,212333.000,A,3138.3819,S,06040.4517,W,0.85,12.32,051213,,,A*57
$GPRMC,212334.000,A,3138.3818,S,06040.4517,W,0.24,12.32,051213,,,A*5A
$GPRMC,212335.000,A,3138.3816,S,06040.4518,W,1.08,11.70,051213,,,A*50
$GPRMC,212336.000,A,3138.3814,S,06040.4518,W,0.54,11.70,051213,,,A*59
$GPRMC,212337.000,A,3138.3813,S,06040.4518,W,0.14,11.70,051213,,,A*5B
$GPRMC,212338.000,A,3138.3812,S,06040.4518,W,0.88,10.88,051213,,,A*56
$GPRMC,212339.000,A,3138.3810,S,06040.4518,W,0.88,9.98,051213,,,A*6C
$GPRMC,212340.000,A,3138.3809,S,06040.4519,W,0.15,9.66,051213,,,A*6E
$GPRMC,212341.000,A,3138.3807,S,06040.4519,W,1.14,10.57,051213,,,A*5B
$GPRMC,212342.000,A,3138.3805,S,06040.4519,W,0.45,10.57,051213,,,A*5F
$GPRMC,212343.000,A,3138.3805,S,06040.4519,W,0.12,10.57,051213,,,A*5C
$GPRMC,212344.000,A,3138.3803,S,06040.4519,W,1.29,8.82,051213,,,A*65
$GPRMC,212345.000,A,3138.3801,S,06040.4519,W,0.25,8.82,051213,,,A*6B
$GPRMC,212346.000,A,3138.3801,S,06040.4519,W,0.08,8.82,051213,,,A*67
$GPRMC,212347.000,A,3138.3799,S,06040.4519,W,0.74,354.09,051213,,,A*6A
$GPRMC,212348.000,A,3138.3797,S,06040.4519,W,1.19,7.65,051213,,,A*6E
$GPRMC,212349.000,A,3138.3795,S,06040.4519,W,0.16,7.65,051213,,,A*63
$GPRMC,212350.000,A,3138.3794,S,06040.4519,W,0.38,7.65,051213,,,A*66
$GPRMC,212351.000,A,3138.3791,S,06040.4518,W,1.68,18.34,051213,,,A*5D
$GPRMC,212352.000,A,3138.3789,S,06040.4518,W,0.16,18.34,051213,,,A*5F
$GPRMC,212353.000,A,3138.3788,S,06040.4519,W,0.35,18.34,051213,,,A*5F
$GPRMC,212354.000,A,3138.3786,S,06040.4519,W,1.42,11.45,051213,,,A*58
$GPRMC,212355.000,A,3138.3783,S,06040.4519,W,0.42,11.45,051213,,,A*5D
$GPRMC,212356.000,A,3138.3782,S,06040.4519,W,0.39,11.45,051213,,,A*53
$GPRMC,212357.000,A,3138.3780,S,06040.4519,W,1.40,2.36,051213,,,A*69
$GPRMC,212358.000,A,3138.3777,S,06040.4519,W,0.59,352.72,051213,,,A*61
$GPRMC,212359.000,A,3138.3776,S,06040.4520,W,0.16,352.72,051213,,,A*60
$GPRMC,212400.000,A,3138.3776,S,06040.4523,W,1.20,277.82,051213,,,A*65
$GPRMC,212401.000,A,3138.3776,S,06040.4527,W,0.89,255.17,051213,,,A*6E
$GPRMC,212402.000,A,3138.3776,S,06040.4529,W,0.10,255.17,051213,,,A*63
$GPRMC,212403.000,A,3138.3777,S,06040.4531,W,0.98,256.48,051213,,,A*63
$GPRMC,212404.000,A,3138.3777,S,06040.4534,W,1.02,258.56,051213,,,A*62
$GPRMC,212405.000,A,3138.3777,S,06040.4536,W,0.01,258.56,051213,,,A*63
$GPRMC,212406.000,A,3138.3777,S,06040.4537,W,0.80,259.76,051213,,,A*6B
$GPRMC,212407.000,A,3138.3778,S,06040.4540,W,1.35,261.25,051213,,,A*67
$GPRMC,212408.000,A,3138.3778,S,06040.4542,W,0.13,261.25,051213,,,A*6F
$GPRMC,212409.000,A,3138.3778,S,06040.4544,W,0.87,276.78,051213,,,A*6B
$GPRMC,212410.000,A,3138.3778,S,06040.4547,W,1.10,276.23,051213,,,A*61
$GPRMC,212411.000,A,3138.3779,S,06040.4549,W,0.21,276.23,051213,,,A*6C
$GPRMC,212412.000,A,3138.3779,S,06040.4550,W,0.61,274.96,051213,,,A*6F
$GPRMC,212413.000,A,3138.3779,S,06040.4553,W,1.37,276.38,051213,,,A*69
$GPRMC,212414.000,A,3138.3779,S,06040.4555,W,0.15,276.38,051213,,,A*69
$GPRMC,212415.000,A,3138.3779,S,06040.4555,W,0.20,276.28,051213,,,A*6F
$GPRMC,212416.000,A,3138.3779,S,06040.4558,W,1.44,278.15,051213,,,A*62
$GPRMC,212417.000,A,3138.3779,S,06040.4561,W,0.28,278.80,051213,,,A*6E
$GPRMC,212418.000,A,3138.3779,S,06040.4562,W,0.29,279.09,051213,,,A*63
$GPRMC,212419.000,A,3138.3780,S,06040.4563,W,0.28,279.45,051213,,,A*6C
$GPRMC,212420.000,A,3138.3780,S,06040.4564,W,0.35,279.45,051213,,,A*6D
$GPRMC,212421.000,A,3138.3780,S,06040.4566,W,0.36,279.45,051213,,,A*6D
$GPRMC,212422.000,A,3138.3780,S,06040.4567,W,1.98,297.76,051213,,,A*6A
$GPRMC,212423.000,A,3138.3779,S,06040.4571,W,0.50,297.76,051213,,,A*6F
$GPRMC,212424.000,A,3138.3777,S,06040.4574,W,0.21,297.76,051213,,,A*65
$GPRMC,212425.000,A,3138.3776,S,06040.4577,W,0.97,275.39,051213,,,A*6C
$GPRMC,212426.000,A,3138.3775,S,06040.4581,W,0.89,276.06,051213,,,A*65
$GPRMC,212427.000,A,3138.3776,S,06040.4587,W,0.42,276.06,051213,,,A*66
$GPRMC,212428.000,A,3138.3777,S,06040.4588,W,0.46,276.06,051213,,,A*63
$GPRMC,212429.000,A,3138.3779,S,06040.4589,W,1.64,185.73,051213,,,A*61
$GPRMC,212430.000,A,3138.3781,S,06040.4589,W,0.32,185.73,051213,,,A*6C
$GPRMC,212431.000,A,3138.3782,S,06040.4589,W,0.36,185.73,051213,,,A*6A
$GPRMC,212432.000,A,3138.3785,S,06040.4589,W,1.53,187.51,051213,,,A*6E
$GPRMC,212433.000,A,3138.3787,S,06040.4590,W,0.37,187.51,051213,,,A*66
$GPRMC,212434.000,A,3138.3788,S,06040.4590,W,0.21,187.51,051213,,,A*69
$GPRMC,212435.000,A,3138.3791,S,06040.4590,W,1.61,187.89,051213,,,A*60
$GPRMC,212436.000,A,3138.3793,S,06040.4591,W,0.41,188.01,051213,,,A*6C
$GPRMC,212437.000,A,3138.3794,S,06040.4591,W,0.33,187.90,051213,,,A*68
$GPRMC,212438.000,A,3138.3796,S,06040.4591,W,1.30,187.12,051213,,,A*6D
$GPRMC,212439.000,A,3138.3798,S,06040.4591,W,0.53,186.98,051213,,,A*65
$GPRMC,212440.000,A,3138.3800,S,06040.4591,W,0.18,186.82,051213,,,A*61
$GPRMC,212441.000,A,3138.3800,S,06040.4591,W,0.22,186.64,051213,,,A*61
$GPRMC,212442.000,A,3138.3803,S,06040.4590,W,1.75,184.28,051213,,,A*69
$GPRMC,212443.000,A,3138.3805,S,06040.4590,W,0.33,184.28,051213,,,A*6D
$GPRMC,212444.000,A,3138.3806,S,06040.4590,W,0.38,184.28,051213,,,A*62
$GPRMC,212445.000,A,3138.3808,S,06040.4591,W,1.30,186.21,051213,,,A*6E
$GPRMC,212446.000,A,3138.3810,S,06040.4591,W,0.19,186.21,051213,,,A*6E
$GPRMC,212447.000,A,3138.3811,S,06040.4591,W,0.49,186.21,051213,,,A*6B
$GPRMC,212448.000,A,3138.3814,S,06040.4591,W,1.63,186.41,051213,,,A*6E
$GPRMC,212449.000,A,3138.3817,S,06040.4591,W,0.48,186.50,051213,,,A*64
$GPRMC,212450.000,A,3138.3818,S,06040.4591,W,0.48,186.32,051213,,,A*67
$GPRMC,212451.000,A,3138.3821,S,06040.4591,W,1.48,188.07,051213,,,A*65
$GPRMC,212452.000,A,3138.3824,S,06040.4591,W,0.28,188.07,051213,,,A*64
$GPRMC,212453.000,A,3138.3825,S,06040.4590,W,0.49,188.07,051213,,,A*62
$GPRMC,212454.000,A,3138.3828,S,06040.4590,W,1.38,185.56,051213,,,A*66
$GPRMC,212455.000,A,3138.3830,S,06040.4589,W,0.59,40.92,051213,,,A*50
$GPRMC,212456.000,A,3138.3830,S,06040.4588,W,0.28,40.92,051213,,,A*54
$GPRMC,212457.000,A,3138.3830,S,06040.4588,W,0.25,40.92,051213,,,A*58
$GPRMC,212458.000,A,3138.3830,S,06040.4588,W,0.05,40.92,051213,,,A*55
$GPRMC,212459.000,A,3138.3830,S,06040.4588,W,0.03,40.92,051213,,,A*52
$GPRMC,212500.000,A,3138.3830,S,06040.4588,W,0.05,40.92,051213,,,A*59
$GPRMC,212501.000,A,3138.3830,S,06040.4588,W,0.03,40.92,051213,,,A*5E
$GPRMC,212502.000,A,3138.3830,S,06040.4588,W,0.02,40.92,051213,,,A*5C
$GPRMC,212503.000,A,3138.3830,S,06040.4588,W,0.01,40.92,051213,,,A*5E
$GPRMC,212504.000,A,3138.3830,S,06040.4588,W,0.01,40.92,051213,,,A*59
$GPRMC,212505.000,A,3138.3830,S,06040.4588,W,0.01,40.92,051213,,,A*58
$GPRMC,212506.000,A,3138.3830,S,06040.4588,W,0.02,40.92,051213,,,A*58
$GPRMC,212507.000,A,3138.3830,S,06040.4588,W,0.01,40.92,051213,,,A*5A
$GPRMC,212508.000,A,3138.3830,S,06040.4588,W,0.02,40.92,051213,,,A*56
$GPRMC,212509.000,A,3138.3830,S,06040.4588,W,0.02,40.92,051213,,,A*57
$GPRMC,212510.000,A,3138.3830,S,06040.4588,W,0.03,40.92,051213,,,A*5E
$GPRMC,212511.000,A,3138.3830,S,06040.4588,W,0.04,40.92,051213,,,A*58
$GPRMC,212512.000,A,3138.3830,S,06040.4588,W,0.03,40.92,051213,,,A*5C
$GPRMC,212513.000,A,3138.3830,S,06040.4588,W,0.01,40.92,051213,,,A*5F
$GPRMC,212514.000,A,3138.3830,S,06040.4588,W,0.19,40.92,051213,,,A*51
$GPRMC,212515.000,A,3138.3830,S,06040.4588,W,0.44,40.92,051213,,,A*58
$GPRMC,212516.000,A,3138.3829,S,06040.4586,W,1.62,40.92,051213,,,A*58
$GPRMC,212517.000,A,3138.3829,S,06040.4583,W,0.12,40.92,051213,,,A*5A
$GPRMC,212518.000,A,3138.3829,S,06040.4581,W,0.34,40.92,051213,,,A*53
$GPRMC,212519.000,A,3138.3829,S,06040.4577,W,1.56,45.97,051213,,,A*5E
$GPRMC,212520.000,A,3138.3829,S,06040.4574,W,0.30,45.97,051213,,,A*56
$GPRMC,212521.000,A,3138.3828,S,06040.4571,W,0.88,96.91,051213,,,A*58
$GPRMC,212522.000,A,3138.3828,S,06040.4568,W,1.08,95.91,051213,,,A*59
$GPRMC,212523.000,A,3138.3828,S,06040.4565,W,0.31,95.91,051213,,,A*5E
$GPRMC,212524.000,A,3138.3829,S,06040.4562,W,1.42,96.87,051213,,,A*5E
$GPRMC,212525.000,A,3138.3829,S,06040.4558,W,0.51,96.87,051213,,,A*55
$GPRMC,212526.000,A,3138.3830,S,06040.4557,W,0.47,96.87,051213,,,A*56
$GPRMC,212527.000,A,3138.3830,S,06040.4554,W,1.26,96.56,051213,,,A*5E
$GPRMC,212528.000,A,3138.3830,S,06040.4551,W,0.17,96.50,051213,,,A*51
$GPRMC,212529.000,A,3138.3829,S,06040.4551,W,0.24,96.31,051213,,,A*5F
$GPRMC,212530.000,A,3138.3829,S,06040.4548,W,1.55,97.36,051213,,,A*5E
$GPRMC,212531.000,A,3138.3829,S,06040.4545,W,0.65,85.54,051213,,,A*57
$GPRMC,212532.000,A,3138.3830,S,06040.4543,W,0.66,111.37,051213,,,A*60
$GPRMC,212533.000,A,3138.3830,S,06040.4540,W,1.18,87.59,051213,,,A*5C
$GPRMC,212534.000,A,3138.3830,S,06040.4537,W,0.35,87.59,051213,,,A*55
$GPRMC,212535.000,A,3138.3831,S,06040.4535,W,0.87,88.16,051213,,,A*5A
$GPRMC,212536.000,A,3138.3831,S,06040.4531,W,1.24,89.44,051213,,,A*53
$GPRMC,212537.000,A,3138.3831,S,06040.4528,W,0.15,89.44,051213,,,A*59
$GPRMC,212538.000,A,3138.3831,S,06040.4525,W,1.17,88.07,051213,,,A*5E
$GPRMC,212539.000,A,3138.3831,S,06040.4522,W,0.65,88.91,051213,,,A*53
$GPRMC,212540.000,A,3138.3830,S,06040.4519,W,0.62,88.78,051213,,,A*54
$GPRMC,212541.000,A,3138.3829,S,06040.4518,W,0.54,88.57,051213,,,A*54
$GPRMC,212542.000,A,3138.3827,S,06040.4518,W,0.55,88.57,051213,,,A*58
$GPRMC,212543.000,A,3138.3824,S,06040.4518,W,1.65,1.24,051213,,,A*6D
$GPRMC,212544.000,A,3138.3821,S,06040.4518,W,1.65,1.23,051213,,,A*68
$GPRMC,212545.000,A,3138.3817,S,06040.4517,W,1.15,0.84,051213,,,A*68
$GPRMC,212546.000,A,3138.3815,S,06040.4517,W,0.41,0.84,051213,,,A*69
$GPRMC,212547.000,A,3138.3812,S,06040.4517,W,1.53,353.48,051213,,,A*68
$GPRMC,212548.000,A,3138.3809,S,06040.4517,W,0.43,353.48,051213,,,A*6D
$GPRMC,212549.000,A,3138.3809,S,06040.4518,W,0.25,353.48,051213,,,A*63
$GPRMC,212550.000,A,3138.3806,S,06040.4518,W,1.32,12.60,051213,,,A*5F
$GPRMC,212551.000,A,3138.3804,S,06040.4518,W,0.34,12.60,051213,,,A*5B
$GPRMC,212552.000,A,3138.3804,S,06040.4519,W,0.28,12.60,051213,,,A*54
$GPRMC,212553.000,A,3138.3802,S,06040.4519,W,1.03,359.55,051213,,,A*61
$GPRMC,212554.000,A,3138.3799,S,06040.4519,W,1.07,6.16,051213,,,A*61
$GPRMC,212555.000,A,3138.3797,S,06040.4519,W,0.14,6.16,051213,,,A*6D
$GPRMC,212556.000,A,3138.3797,S,06040.4518,W,0.32,6.16,051213,,,A*6B
$GPRMC,212557.000,A,3138.3795,S,06040.4518,W,0.71,6.85,051213,,,A*65
$GPRMC,212558.000,A,3138.3793,S,06040.4517,W,0.55,6.85,051213,,,A*65
$GPRMC,212559.000,A,3138.3792,S,06040.4516,W,0.16,6.85,051213,,,A*63
$GPRMC,212600.000,A,3138.3790,S,06040.4516,W,1.08,358.91,051213,,,A*6D
$GPRMC,212601.000,A,3138.3787,S,06040.4516,W,0.73,0.09,051213,,,A*68
$GPRMC,212602.000,A,3138.3786,S,06040.4516,W,0.34,0.09,051213,,,A*69
$GPRMC,212603.000,A,3138.3785,S,06040.4516,W,0.68,350.85,051213,,,A*60
$GPRMC,212604.000,A,3138.3782,S,06040.4516,W,1.16,11.01,051213,,,A*52
$GPRMC,212605.000,A,3138.3780,S,06040.4515,W,0.35,11.01,051213,,,A*52
$GPRMC,212606.000,A,3138.3779,S,06040.4516,W,0.69,331.78,051213,,,A*62
$GPRMC,212607.000,A,3138.3778,S,06040.4518,W,0.53,331.78,051213,,,A*65
$GPRMC,212608.000,A,3138.3777,S,06040.4519,W,0.37,331.78,051213,,,A*66
$GPRMC,212609.000,A,3138.3777,S,06040.4521,W,0.72,285.44,051213,,,A*6C
$GPRMC,212610.000,A,3138.3777,S,06040.4525,W,1.23,269.42,051213,,,A*61
$GPRMC,212611.000,A,3138.3778,S,06040.4528,W,0.36,269.42,051213,,,A*67
$GPRMC,212612.000,A,3138.3778,S,06040.4531,W,1.30,272.92,051213,,,A*6C
$GPRMC,212613.000,A,3138.3778,S,06040.4534,W,0.79,267.95,051213,,,A*67
$GPRMC,212614.000,A,3138.3778,S,06040.4536,W,0.40,267.95,051213,,,A*68
$GPRMC,212615.000,A,3138.3779,S,06040.4539,W,1.35,268.62,051213,,,A*63
$GPRMC,212616.000,A,3138.3779,S,06040.4542,W,0.51,268.62,051213,,,A*6F
$GPRMC,212617.000,A,3138.3779,S,06040.4544,W,0.14,268.62,051213,,,A*69
$GPRMC,212618.000,A,3138.3779,S,06040.4547,W,1.29,283.21,051213,,,A*68
$GPRMC,212619.000,A,3138.3779,S,06040.4550,W,0.54,283.21,051213,,,A*64
$GPRMC,212620.000,A,3138.3779,S,06040.4552,W,0.26,283.21,051213,,,A*69
$GPRMC,212621.000,A,3138.3779,S,06040.4554,W,1.32,260.46,051213,,,A*66
$GPRMC,212622.000,A,3138.3779,S,06040.4557,W,0.27,260.46,051213,,,A*63
$GPRMC,212623.000,A,3138.3779,S,06040.4560,W,1.10,276.84,051213,,,A*6A
$GPRMC,212624.000,A,3138.3779,S,06040.4563,W,0.72,276.29,051213,,,A*6C
$GPRMC,212625.000,A,3138.3779,S,06040.4564,W,0.21,276.29,051213,,,A*6C
$GPRMC,212626.000,A,3138.3779,S,06040.4567,W,1.31,275.17,051213,,,A*62
$GPRMC,212627.000,A,3138.3779,S,06040.4569,W,0.32,275.17,051213,,,A*6F
$GPRMC,212628.000,A,3138.3778,S,06040.4571,W,0.49,275.17,051213,,,A*64
$GPRMC,212629.000,A,3138.3778,S,06040.4574,W,1.33,275.02,051213,,,A*68
$GPRMC,212630.000,A,3138.3778,S,06040.4576,W,0.27,274.97,051213,,,A*6B
$GPRMC,212631.000,A,3138.3778,S,06040.4578,W,0.90,281.62,051213,,,A*68
$GPRMC,212632.000,A,3138.3776,S,06040.4582,W,1.98,325.20,051213,,,A*60
$GPRMC,212633.000,A,3138.3776,S,06040.4584,W,1.60,194.25,051213,,,A*6D
$GPRMC,212634.000,A,3138.3775,S,06040.4585,W,1.05,296.82,051213,,,A*67
$GPRMC,212635.000,A,3138.3776,S,06040.4585,W,0.78,157.27,051213,,,A*6F
$GPRMC,212636.000,A,3138.3778,S,06040.4585,W,0.74,159.88,051213,,,A*65
$GPRMC,212637.000,A,3138.3780,S,06040.4584,W,0.73,162.61,051213,,,A*6A
$GPRMC,212638.000,A,3138.3783,S,06040.4584,W,1.54,165.21,051213,,,A*61
$GPRMC,212639.000,A,3138.3784,S,06040.4584,W,0.51,165.21,051213,,,A*63
$GPRMC,212640.000,A,3138.3785,S,06040.4583,W,1.01,189.42,051213,,,A*68
$GPRMC,212641.000,A,3138.3788,S,06040.4583,W,1.06,188.15,051213,,,A*60
$GPRMC,212642.000,A,3138.3791,S,06040.4582,W,0.34,188.15,051213,,,A*6A
$GPRMC,212643.000,A,3138.3793,S,06040.4582,W,1.52,188.63,051213,,,A*69
$GPRMC,212644.000,A,3138.3797,S,06040.4582,W,0.51,188.63,051213,,,A*68
$GPRMC,212645.000,A,3138.3799,S,06040.4581,W,0.53,188.63,051213,,,A*66
$GPRMC,212646.000,A,3138.3801,S,06040.4581,W,1.49,173.88,051213,,,A*60
$GPRMC,212647.000,A,3138.3804,S,06040.4581,W,0.52,173.88,051213,,,A*6F
$GPRMC,212648.000,A,3138.3806,S,06040.4582,W,0.80,174.57,051213,,,A*6B
$GPRMC,212649.000,A,3138.3808,S,06040.4582,W,1.07,176.38,051213,,,A*61
$GPRMC,212650.000,A,3138.3810,S,06040.4582,W,0.33,176.38,051213,,,A*66
$GPRMC,212651.000,A,3138.3813,S,06040.4582,W,1.38,178.15,051213,,,A*6F
$GPRMC,212652.000,A,3138.3816,S,06040.4582,W,0.63,179.59,051213,,,A*6F
$GPRMC,212653.000,A,3138.3818,S,06040.4582,W,0.40,179.59,051213,,,A*61
$GPRMC,212654.000,A,3138.3821,S,06040.4581,W,1.53,180.11,051213,,,A*66
$GPRMC,212655.000,A,3138.3823,S,06040.4581,W,0.31,180.11,051213,,,A*60
$GPRMC,212656.000,A,3138.3825,S,06040.4581,W,0.84,179.39,051213,,,A*67
$GPRMC,212657.000,A,3138.3828,S,06040.4581,W,0.90,163.93,051213,,,A*65
$GPRMC,212658.000,A,3138.3830,S,06040.4579,W,0.14,163.93,051213,,,A*68
$GPRMC,212659.000,A,3138.3830,S,06040.4578,W,0.30,163.93,051213,,,A*6E
$GPRMC,212700.000,A,3138.3831,S,06040.4577,W,0.10,163.93,051213,,,A*6F
$GPRMC,212701.000,A,3138.3831,S,06040.4577,W,0.07,163.93,051213,,,A*68
$GPRMC,212702.000,A,3138.3831,S,06040.4577,W,0.06,163.93,051213,,,A*6A
$GPRMC,212703.000,A,3138.3831,S,06040.4577,W,0.02,163.93,051213,,,A*6F
$GPRMC,212704.000,A,3138.3831,S,06040.4577,W,0.01,163.93,051213,,,A*6B
$GPRMC,212705.000,A,3138.3831,S,06040.4577,W,0.01,163.93,051213,,,A*6A
$GPRMC,212706.000,A,3138.3831,S,06040.4577,W,0.01,163.93,051213,,,A*69
$GPRMC,212707.000,A,3138.3831,S,06040.4577,W,0.04,163.93,051213,,,A*6D
$GPRMC,212708.000,A,3138.3831,S,06040.4577,W,0.03,163.93,051213,,,A*65
$GPRMC,212709.000,A,3138.3831,S,06040.4577,W,0.05,163.93,051213,,,A*62
$GPRMC,212710.000,A,3138.3831,S,06040.4577,W,0.09,163.93,051213,,,A*66
$GPRMC,212711.000,A,3138.3831,S,06040.4577,W,0.12,163.93,051213,,,A*6D
$GPRMC,212712.000,A,3138.3831,S,06040.4577,W,0.04,163.93,051213,,,A*69
$GPRMC,212713.000,A,3138.3831,S,06040.4577,W,0.09,163.93,051213,,,A*65
$GPRMC,212714.000,A,3138.3831,S,06040.4577,W,0.09,163.93,051213,,,A*62
$GPRMC,212715.000,A,3138.3831,S,06040.4577,W,0.03,163.93,051213,,,A*69
$GPRMC,212716.000,A,3138.3831,S,06040.4577,W,0.06,163.93,051213,,,A*6F
$GPRMC,212717.000,A,3138.3831,S,06040.4577,W,0.02,163.93,051213,,,A*6A
$GPRMC,212718.000,A,3138.3831,S,06040.4577,W,0.03,163.93,051213,,,A*64
$GPRMC,212719.000,A,3138.3831,S,06040.4577,W,0.02,163.93,051213,,,A*64
$GPRMC,212720.000,A,3138.3831,S,06040.4576,W,0.02,163.93,051213,,,A*6F
$GPRMC,212721.000,A,3138.3831,S,06040.4576,W,0.02,163.93,051213,,,A*6E
$GPRMC,212722.000,A,3138.3831,S,06040.4576,W,0.00,163.93,051213,,,A*6F
$GPRMC,212723.000,A,3138.3831,S,06040.4576,W,0.14,163.93,051213,,,A*6B
$GPRMC,212724.000,A,3138.3831,S,06040.4576,W,1.56,92.90,051213,,,A*57
$GPRMC,212725.000,A,3138.3831,S,06040.4573,W,0.31,92.90,051213,,,A*53
$GPRMC,212726.000,A,3138.3831,S,06040.4571,W,0.98,93.48,051213,,,A*55
$GPRMC,212727.000,A,3138.3832,S,06040.4568,W,0.91,96.91,051213,,,A*57
$GPRMC,212728.000,A,3138.3832,S,06040.4566,W,0.29,96.91,051213,,,A*55
$GPRMC,212729.000,A,3138.3832,S,06040.4563,W,1.54,99.35,051213,,,A*5B
$GPRMC,212730.000,A,3138.3832,S,06040.4560,W,0.39,99.35,051213,,,A*5A
$GPRMC,212731.000,A,3138.3831,S,06040.4558,W,0.65,100.68,051213,,,A*63
$GPRMC,212732.000,A,3138.3831,S,06040.4555,W,1.30,82.71,051213,,,A*5F
$GPRMC,212733.000,A,3138.3831,S,06040.4552,W,0.43,82.71,051213,,,A*5C
$GPRMC,212734.000,A,3138.3831,S,06040.4549,W,1.09,83.31,051213,,,A*5B
$GPRMC,212735.000,A,3138.3831,S,06040.4546,W,1.01,85.22,051213,,,A*59
$GPRMC,212736.000,A,3138.3831,S,06040.4544,W,0.19,85.22,051213,,,A*50
$GPRMC,212737.000,A,3138.3831,S,06040.4541,W,1.23,87.11,051213,,,A*5E
$GPRMC,212738.000,A,3138.3832,S,06040.4538,W,0.64,88.09,051213,,,A*58
$GPRMC,212739.000,A,3138.3832,S,06040.4537,W,0.12,88.09,051213,,,A*57
$GPRMC,212740.000,A,3138.3832,S,06040.4535,W,0.99,88.92,051213,,,A*5A
$GPRMC,212741.000,A,3138.3832,S,06040.4533,W,0.65,90.35,051213,,,A*5A
$GPRMC,212742.000,A,3138.3832,S,06040.4532,W,0.10,90.52,051213,,,A*5B
$GPRMC,212743.000,A,3138.3832,S,06040.4530,W,0.82,91.35,051213,,,A*53
$GPRMC,212744.000,A,3138.3832,S,06040.4528,W,0.87,91.25,051213,,,A*59
$GPRMC,212745.000,A,3138.3832,S,06040.4527,W,0.12,91.34,051213,,,A*5B
$GPRMC,212746.000,A,3138.3832,S,06040.4526,W,0.64,90.61,051213,,,A*59
$GPRMC,212747.000,A,3138.3832,S,06040.4523,W,1.23,104.22,051213,,,A*64
$GPRMC,212748.000,A,3138.3832,S,06040.4520,W,0.25,104.22,051213,,,A*6F
$GPRMC,212749.000,A,3138.3832,S,06040.4518,W,0.96,87.26,051213,,,A*53
$GPRMC,212750.000,A,3138.3832,S,06040.4516,W,0.29,87.26,051213,,,A*51
$GPRMC,212751.000,A,3138.3831,S,06040.4516,W,0.32,87.26,051213,,,A*59
$GPRMC,212752.000,A,3138.3829,S,06040.4517,W,1.28,324.14,051213,,,A*63
$GPRMC,212753.000,A,3138.3826,S,06040.4519,W,0.85,20.24,051213,,,A*51
$GPRMC,212754.000,A,3138.3827,S,06040.4521,W,0.26,20.24,051213,,,A*55
$GPRMC,212755.000,A,3138.3826,S,06040.4521,W,0.30,20.24,051213,,,A*52
$GPRMC,212756.000,A,3138.3824,S,06040.4520,W,1.30,352.53,051213,,,A*65
$GPRMC,212757.000,A,3138.3822,S,06040.4520,W,0.31,352.53,051213,,,A*62
$GPRMC,212758.000,A,3138.3821,S,06040.4520,W,0.60,351.94,051213,,,A*62
$GPRMC,212759.000,A,3138.3817,S,06040.4519,W,2.26,26.13,051213,,,A*50
$GPRMC,212800.000,A,3138.3814,S,06040.4517,W,0.51,26.13,051213,,,A*5C
$GPRMC,212801.000,A,3138.3812,S,06040.4517,W,0.69,359.51,051213,,,A*6D
$GPRMC,212802.000,A,3138.3809,S,06040.4518,W,1.57,1.84,051213,,,A*61
$GPRMC,212803.000,A,3138.3807,S,06040.4517,W,0.34,1.84,051213,,,A*65
$GPRMC,212804.000,A,3138.3805,S,06040.4517,W,0.73,3.44,051213,,,A*6D
$GPRMC,212805.000,A,3138.3803,S,06040.4516,W,1.06,9.79,051213,,,A*6C
$GPRMC,212806.000,A,3138.3800,S,06040.4510,W,4.10,68.84,051213,,,A*5D
$GPRMC,212807.000,A,3138.3795,S,06040.4506,W,2.61,311.16,051213,,,A*6E
$GPRMC,212808.000,A,3138.3794,S,06040.4510,W,0.67,127.46,051213,,,A*61
$GPRMC,212809.000,A,3138.3794,S,06040.4510,W,0.16,127.46,051213,,,A*66
$GPRMC,212810.000,A,3138.3791,S,06040.4510,W,1.05,10.63,051213,,,A*5A
$GPRMC,212811.000,A,3138.3790,S,06040.4511,W,0.55,10.63,051213,,,A*5F
$GPRMC,212812.000,A,3138.3790,S,06040.4514,W,0.80,259.99,051213,,,A*6B
$GPRMC,212813.000,A,3138.3789,S,06040.4512,W,0.80,66.17,051213,,,A*5C
$GPRMC,212814.000,A,3138.3789,S,06040.4512,W,0.38,66.17,051213,,,A*58
$GPRMC,212815.000,A,3138.3788,S,06040.4513,W,0.15,66.17,051213,,,A*56
$GPRMC,212816.000,A,3138.3788,S,06040.4515,W,0.43,66.17,051213,,,A*50
$GPRMC,212817.000,A,3138.3788,S,06040.4516,W,0.50,66.17,051213,,,A*50
$GPRMC,212818.000,A,3138.3787,S,06040.4518,W,0.58,66.17,051213,,,A*56
$GPRMC,212819.000,A,3138.3789,S,06040.4517,W,1.55,304.38,051213,,,A*60
$GPRMC,212820.000,A,3138.3788,S,06040.4522,W,1.59,291.49,051213,,,A*6A
$GPRMC,212821.000,A,3138.3789,S,06040.4526,W,1.61,273.07,051213,,,A*63
$GPRMC,212822.000,A,3138.3789,S,06040.4528,W,0.91,267.49,051213,,,A*6F
$GPRMC,212823.000,A,3138.3789,S,06040.4527,W,0.51,267.49,051213,,,A*6D
$GPRMC,212824.000,A,3138.3789,S,06040.4530,W,1.15,265.54,051213,,,A*63
$GPRMC,212825.000,A,3138.3788,S,06040.4533,W,0.40,265.54,051213,,,A*61
$GPRMC,212826.000,A,3138.3788,S,06040.4535,W,0.65,258.75,051213,,,A*6E
$GPRMC,212827.000,A,3138.3788,S,06040.4539,W,1.29,260.24,051213,,,A*65
$GPRMC,212828.000,A,3138.3788,S,06040.4542,W,0.29,260.24,051213,,,A*67
$GPRMC,212829.000,A,3138.3787,S,06040.4546,W,1.36,261.52,051213,,,A*62
$GPRMC,212830.000,A,3138.3787,S,06040.4549,W,0.69,263.32,051213,,,A*6A
$GPRMC,212831.000,A,3138.3787,S,06040.4552,W,0.63,263.32,051213,,,A*6B
$GPRMC,212832.000,A,3138.3786,S,06040.4555,W,1.44,264.84,051213,,,A*60
$GPRMC,212833.000,A,3138.3786,S,06040.4558,W,0.44,264.84,051213,,,A*6D
$GPRMC,212834.000,A,3138.3786,S,06040.4560,W,0.45,264.84,051213,,,A*60
$GPRMC,212835.000,A,3138.3785,S,06040.4563,W,1.16,268.22,051213,,,A*66
$GPRMC,212836.000,A,3138.3785,S,06040.4565,W,0.18,268.22,051213,,,A*6C
$GPRMC,212837.000,A,3138.3785,S,06040.4567,W,0.88,270.25,051213,,,A*68
$GPRMC,212838.000,A,3138.3785,S,06040.4570,W,0.90,278.53,051213,,,A*61
$GPRMC,212839.000,A,3138.3785,S,06040.4572,W,0.19,278.53,051213,,,A*63
$GPRMC,212840.000,A,3138.3785,S,06040.4575,W,0.94,277.48,051213,,,A*6A
$GPRMC,212841.000,A,3138.3784,S,06040.4577,W,0.53,277.48,051213,,,A*63
$GPRMC,212842.000,A,3138.3784,S,06040.4579,W,0.35,277.48,051213,,,A*6E
$GPRMC,212843.000,A,3138.3784,S,06040.4582,W,0.99,277.48,051213,,,A*6D
$GPRMC,212844.000,A,3138.3784,S,06040.4584,W,0.20,277.28,051213,,,A*68
$GPRMC,212845.000,A,3138.3785,S,06040.4584,W,0.54,277.38,051213,,,A*6A
$GPRMC,212846.000,A,3138.3788,S,06040.4584,W,1.41,178.29,051213,,,A*6D
$GPRMC,212847.000,A,3138.3790,S,06040.4585,W,0.31,178.29,051213,,,A*62
$GPRMC,212848.000,A,3138.3791,S,06040.4584,W,0.92,177.73,051213,,,A*64
$GPRMC,212849.000,A,3138.3794,S,06040.4584,W,1.14,181.05,051213,,,A*67
$GPRMC,212850.000,A,3138.3796,S,06040.4583,W,0.38,181.05,051213,,,A*65
$GPRMC,212851.000,A,3138.3797,S,06040.4584,W,0.89,181.74,051213,,,A*6E
$GPRMC,212852.000,A,3138.3799,S,06040.4583,W,1.05,182.10,051213,,,A*60
$GPRMC,212853.000,A,3138.3801,S,06040.4583,W,0.15,182.48,051213,,,A*62
$GPRMC,212854.000,A,3138.3802,S,06040.4583,W,0.16,182.31,051213,,,A*6B
$GPRMC,212855.000,A,3138.3804,S,06040.4583,W,1.46,182.51,051213,,,A*6E
$GPRMC,212856.000,A,3138.3806,S,06040.4584,W,0.42,182.51,051213,,,A*6D
$GPRMC,212857.000,A,3138.3807,S,06040.4584,W,0.19,182.51,051213,,,A*63
$GPRMC,212858.000,A,3138.3808,S,06040.4583,W,0.71,185.05,051213,,,A*6C
$GPRMC,212859.000,A,3138.3811,S,06040.4584,W,1.21,176.16,051213,,,A*68
$GPRMC,212900.000,A,3138.3812,S,06040.4583,W,0.15,176.16,051213,,,A*67
$GPRMC,212901.000,A,3138.3813,S,06040.4583,W,0.20,176.16,051213,,,A*61
$GPRMC,212902.000,A,3138.3815,S,06040.4583,W,1.54,175.09,051213,,,A*6B
$GPRMC,212903.000,A,3138.3818,S,06040.4583,W,0.72,201.29,051213,,,A*60
$GPRMC,212904.000,A,3138.3820,S,06040.4584,W,0.25,201.29,051213,,,A*69
$GPRMC,212905.000,A,3138.3822,S,06040.4584,W,1.11,185.15,051213,,,A*6C
$GPRMC,212906.000,A,3138.3824,S,06040.4584,W,0.75,187.11,051213,,,A*6C
$GPRMC,212907.000,A,3138.3825,S,06040.4584,W,0.26,187.11,051213,,,A*6A
$GPRMC,212908.000,A,3138.3827,S,06040.4583,W,1.15,185.05,051213,,,A*66
$GPRMC,212909.000,A,3138.3830,S,06040.4584,W,0.66,187.15,051213,,,A*60
$GPRMC,212910.000,A,3138.3831,S,06040.4584,W,0.30,187.15,051213,,,A*6A
$GPRMC,212911.000,A,3138.3833,S,06040.4584,W,1.30,177.70,051213,,,A*64
$GPRMC,212912.000,A,3138.3835,S,06040.4583,W,0.44,177.70,051213,,,A*64
$GPRMC,212913.000,A,3138.3836,S,06040.4582,W,0.38,177.70,051213,,,A*6C
$GPRMC,212914.000,A,3138.3836,S,06040.4581,W,0.10,177.70,051213,,,A*62
$GPRMC,212915.000,A,3138.3836,S,06040.4581,W,0.06,177.70,051213,,,A*64
$GPRMC,212916.000,A,3138.3836,S,06040.4581,W,0.11,177.70,051213,,,A*61
$GPRMC,212917.000,A,3138.3835,S,06040.4581,W,0.26,177.70,051213,,,A*67
$GPRMC,212918.000,A,3138.3835,S,06040.4582,W,0.07,177.70,051213,,,A*68
$GPRMC,212919.000,A,3138.3835,S,06040.4582,W,0.10,177.70,051213,,,A*6F
$GPRMC,212920.000,A,3138.3835,S,06040.4582,W,0.06,177.70,051213,,,A*62
$GPRMC,212921.000,A,3138.3835,S,06040.4582,W,0.37,177.70,051213,,,A*61
$GPRMC,212922.000,A,3138.3836,S,06040.4581,W,0.00,177.70,051213,,,A*66
$GPRMC,212923.000,A,3138.3836,S,06040.4581,W,0.03,177.70,051213,,,A*64
$GPRMC,212924.000,A,3138.3835,S,06040.4581,W,0.01,177.70,051213,,,A*62
$GPRMC,212925.000,A,3138.3835,S,06040.4581,W,0.05,177.70,051213,,,A*67
$GPRMC,212926.000,A,3138.3835,S,06040.4581,W,0.21,177.70,051213,,,A*62
$GPRMC,212927.000,A,3138.3835,S,06040.4581,W,1.61,177.70,051213,,,A*66
$GPRMC,212928.000,A,3138.3835,S,06040.4578,W,0.24,177.70,051213,,,A*6F
$GPRMC,212929.000,A,3138.3835,S,06040.4576,W,0.67,104.90,051213,,,A*6D
$GPRMC,212930.000,A,3138.3835,S,06040.4572,W,1.33,83.19,051213,,,A*5E
$GPRMC,212931.000,A,3138.3834,S,06040.4571,W,0.41,83.19,051213,,,A*59
$GPRMC,212932.000,A,3138.3834,S,06040.4568,W,0.85,81.68,051213,,,A*5E
$GPRMC,212933.000,A,3138.3834,S,06040.4564,W,1.03,96.24,051213,,,A*52
$GPRMC,212934.000,A,3138.3833,S,06040.4562,W,0.11,96.24,051213,,,A*56
$GPRMC,212935.000,A,3138.3832,S,06040.4562,W,0.94,0.08,051213,,,A*6A
$GPRMC,212936.000,A,3138.3830,S,06040.4559,W,0.92,7.38,051213,,,A*61
$GPRMC,212937.000,A,3138.3830,S,06040.4556,W,0.88,103.11,051213,,,A*6A
$GPRMC,212938.000,A,3138.3831,S,06040.4552,W,1.06,101.85,051213,,,A*68
$GPRMC,212939.000,A,3138.3830,S,06040.4549,W,1.02,100.73,051213,,,A*6E
$GPRMC,212940.000,A,3138.3829,S,06040.4551,W,0.29,100.73,051213,,,A*69
$GPRMC,212941.000,A,3138.3829,S,06040.4550,W,0.33,100.73,051213,,,A*62
$GPRMC,212942.000,A,3138.3830,S,06040.4548,W,0.93,138.61,051213,,,A*62
$GPRMC,212943.000,A,3138.3831,S,06040.4547,W,0.58,138.61,051213,,,A*6A
$GPRMC,212944.000,A,3138.3832,S,06040.4543,W,1.50,135.97,051213,,,A*67
$GPRMC,212945.000,A,3138.3833,S,06040.4540,W,1.04,133.31,051213,,,A*6F
$GPRMC,212946.000,A,3138.3833,S,06040.4538,W,0.08,133.31,051213,,,A*6E
$GPRMC,212947.000,A,3138.3833,S,06040.4537,W,0.65,77.30,051213,,,A*5B
$GPRMC,212948.000,A,3138.3833,S,06040.4533,W,1.39,79.38,051213,,,A*5E
$GPRMC,212949.000,A,3138.3833,S,06040.4530,W,0.21,79.38,051213,,,A*54
$GPRMC,212950.000,A,3138.3833,S,06040.4529,W,0.27,79.38,051213,,,A*52
$GPRMC,212951.000,A,3138.3833,S,06040.4525,W,1.37,81.10,051213,,,A*52
$GPRMC,212952.000,A,3138.3833,S,06040.4522,W,0.49,81.10,051213,,,A*5E
$GPRMC,212953.000,A,3138.3833,S,06040.4521,W,0.25,81.10,051213,,,A*56
$GPRMC,212954.000,A,3138.3833,S,06040.4521,W,0.64,341.53,051213,,,A*6C
$GPRMC,212955.000,A,3138.3830,S,06040.4520,W,1.58,9.59,051213,,,A*64
$GPRMC,212956.000,A,3138.3827,S,06040.4520,W,0.35,9.59,051213,,,A*6B
$GPRMC,212957.000,A,3138.3827,S,06040.4519,W,0.30,9.59,051213,,,A*65
$GPRMC,212958.000,A,3138.3825,S,06040.4519,W,1.09,357.96,051213,,,A*68
$GPRMC,212959.000,A,3138.3822,S,06040.4519,W,1.17,4.94,051213,,,A*66
$GPRMC,213000.000,A,3138.3821,S,06040.4519,W,0.32,4.94,051213,,,A*67
$GPRMC,213001.000,A,3138.3820,S,06040.4520,W,0.33,4.94,051213,,,A*6C
$GPRMC,213002.000,A,3138.3818,S,06040.4519,W,0.67,329.43,051213,,,A*69
$GPRMC,213003.000,A,3138.3818,S,06040.4521,W,0.38,329.43,051213,,,A*69
$GPRMC,213004.000,A,3138.3818,S,06040.4521,W,0.21,329.43,051213,,,A*66
$GPRMC,213005.000,A,3138.3815,S,06040.4522,W,1.01,356.55,051213,,,A*65
$GPRMC,213006.000,A,3138.3812,S,06040.4522,W,1.22,1.06,051213,,,A*67
$GPRMC,213007.000,A,3138.3811,S,06040.4521,W,0.33,1.06,051213,,,A*67
$GPRMC,213008.000,A,3138.3811,S,06040.4521,W,0.28,1.06,051213,,,A*62
$GPRMC,213009.000,A,3138.3809,S,06040.4520,W,1.52,12.41,051213,,,A*56
$GPRMC,213010.000,A,3138.3806,S,06040.4520,W,0.34,12.41,051213,,,A*50
$GPRMC,213011.000,A,3138.3806,S,06040.4520,W,0.14,12.41,051213,,,A*53
$GPRMC,213012.000,A,3138.3805,S,06040.4520,W,0.70,357.10,051213,,,A*67
$GPRMC,213013.000,A,3138.3801,S,06040.4519,W,1.74,9.09,051213,,,A*6D
$GPRMC,213014.000,A,3138.3798,S,06040.4519,W,0.39,9.09,051213,,,A*6D
$GPRMC,213015.000,A,3138.3797,S,06040.4519,W,0.21,9.09,051213,,,A*6A
$GPRMC,213016.000,A,3138.3795,S,06040.4519,W,1.22,6.31,051213,,,A*6D
$GPRMC,213017.000,A,3138.3793,S,06040.4519,W,0.66,352.19,051213,,,A*63
$GPRMC,213018.000,A,3138.3792,S,06040.4519,W,0.33,352.19,051213,,,A*6D
$GPRMC,213019.000,A,3138.3791,S,06040.4519,W,0.50,352.19,051213,,,A*6A
$GPRMC,213020.000,A,3138.3788,S,06040.4519,W,0.90,4.57,051213,,,A*6E
$GPRMC,213021.000,A,3138.3787,S,06040.4520,W,0.27,4.57,051213,,,A*66
$GPRMC,213022.000,A,3138.3787,S,06040.4522,W,0.97,277.56,051213,,,A*6B
$GPRMC,213023.000,A,3138.3786,S,06040.4525,W,0.96,271.84,051213,,,A*64
$GPRMC,213024.000,A,3138.3786,S,06040.4527,W,0.25,271.84,051213,,,A*69
$GPRMC,213025.000,A,3138.3786,S,06040.4529,W,1.19,273.95,051213,,,A*6A
$GPRMC,213026.000,A,3138.3786,S,06040.4532,W,0.75,267.71,051213,,,A*67
$GPRMC,213027.000,A,3138.3786,S,06040.4534,W,0.37,267.71,051213,,,A*66
$GPRMC,213028.000,A,3138.3786,S,06040.4537,W,1.17,265.17,051213,,,A*6B
$GPRMC,213029.000,A,3138.3786,S,06040.4539,W,0.46,265.17,051213,,,A*61
$GPRMC,213030.000,A,3138.3786,S,06040.4541,W,0.53,263.49,051213,,,A*6F
$GPRMC,213031.000,A,3138.3785,S,06040.4544,W,1.31,282.39,051213,,,A*65
$GPRMC,213032.000,A,3138.3785,S,06040.4547,W,0.33,282.39,051213,,,A*66
$GPRMC,213033.000,A,3138.3785,S,06040.4548,W,0.69,283.56,051213,,,A*6F
$GPRMC,213034.000,A,3138.3785,S,06040.4552,W,1.30,265.78,051213,,,A*6A
$GPRMC,213035.000,A,3138.3785,S,06040.4555,W,0.47,265.78,051213,,,A*6D
$GPRMC,213036.000,A,3138.3785,S,06040.4557,W,0.77,268.36,051213,,,A*68
$GPRMC,213037.000,A,3138.3785,S,06040.4560,W,1.16,282.95,051213,,,A*66
$GPRMC,213038.000,A,3138.3784,S,06040.4563,W,0.28,282.95,051213,,,A*67
$GPRMC,213039.000,A,3138.3784,S,06040.4565,W,0.83,282.80,051213,,,A*65
$GPRMC,213040.000,A,3138.3783,S,06040.4568,W,1.10,273.91,051213,,,A*64
$GPRMC,213041.000,A,3138.3782,S,06040.4570,W,0.39,273.91,051213,,,A*67
$GPRMC,213042.000,A,3138.3782,S,06040.4573,W,1.22,274.82,051213,,,A*69
$GPRMC,213043.000,A,3138.3782,S,06040.4576,W,0.80,265.27,051213,,,A*6B
$GPRMC,213044.000,A,3138.3782,S,06040.4578,W,0.43,265.27,051213,,,A*6D
$GPRMC,213045.000,A,3138.3782,S,06040.4581,W,1.33,266.22,051213,,,A*6A
$GPRMC,213046.000,A,3138.3782,S,06040.4584,W,0.56,266.22,051213,,,A*6E
$GPRMC,213047.000,A,3138.3781,S,06040.4583,W,1.88,51.29,051213,,,A*54
$GPRMC,213048.000,A,3138.3775,S,06040.4578,W,3.92,50.32,051213,,,A*56
$GPRMC,213049.000,A,3138.3770,S,06040.4573,W,1.89,47.61,051213,,,A*51
$GPRMC,213050.000,A,3138.3773,S,06040.4575,W,1.47,175.25,051213,,,A*6E
$GPRMC,213051.000,A,3138.3776,S,06040.4576,W,0.80,176.60,051213,,,A*61
$GPRMC,213052.000,A,3138.3780,S,06040.4577,W,1.11,178.03,051213,,,A*68
$GPRMC,213053.000,A,3138.3778,S,06040.4579,W,1.47,181.28,051213,,,A*6C
$GPRMC,213054.000,A,3138.3780,S,06040.4581,W,0.29,181.28,051213,,,A*62
$GPRMC,213055.000,A,3138.3781,S,06040.4581,W,0.61,199.01,051213,,,A*6C
$GPRMC,213056.000,A,3138.3784,S,06040.4582,W,1.51,197.12,051213,,,A*67
$GPRMC,213057.000,A,3138.3788,S,06040.4582,W,0.09,197.12,051213,,,A*66
$GPRMC,213058.000,A,3138.3789,S,06040.4582,W,0.50,197.12,051213,,,A*64
$GPRMC,213059.000,A,3138.3792,S,06040.4582,W,1.42,195.25,051213,,,A*6B
$GPRMC,213100.000,A,3138.3796,S,06040.4581,W,0.58,195.25,051213,,,A*6B
$GPRMC,213101.000,A,3138.3797,S,06040.4581,W,0.20,195.25,051213,,,A*64
$GPRMC,213102.000,A,3138.3799,S,06040.4581,W,1.48,193.77,051213,,,A*67
$GPRMC,213103.000,A,3138.3804,S,06040.4580,W,0.70,196.95,051213,,,A*6F
$GPRMC,213104.000,A,3138.3806,S,06040.4580,W,0.40,196.95,051213,,,A*69
$GPRMC,213105.000,A,3138.3808,S,06040.4581,W,0.86,196.15,051213,,,A*65
$GPRMC,213106.000,A,3138.3811,S,06040.4581,W,1.33,194.81,051213,,,A*6E
$GPRMC,213107.000,A,3138.3813,S,06040.4581,W,0.32,194.81,051213,,,A*6D
$GPRMC,213108.000,A,3138.3815,S,06040.4582,W,0.31,194.81,051213,,,A*64
$GPRMC,213109.000,A,3138.3814,S,06040.4580,W,2.04,53.41,051213,,,A*54
$GPRMC,213110.000,A,3138.3814,S,06040.4578,W,0.39,53.41,051213,,,A*57
$GPRMC,213111.000,A,3138.3815,S,06040.4579,W,0.35,53.41,051213,,,A*5A
$GPRMC,213112.000,A,3138.3816,S,06040.4579,W,0.12,53.41,051213,,,A*5F
$GPRMC,213113.000,A,3138.3820,S,06040.4579,W,0.54,53.41,051213,,,A*59
$GPRMC,213114.000,A,3138.3821,S,06040.4579,W,0.32,53.41,051213,,,A*5F
$GPRMC,213115.000,A,3138.3822,S,06040.4578,W,0.09,53.41,051213,,,A*54
$GPRMC,213116.000,A,3138.3822,S,06040.4578,W,0.04,53.41,051213,,,A*5A
$GPRMC,213117.000,A,3138.3822,S,06040.4578,W,0.04,53.41,051213,,,A*5B
$GPRMC,213118.000,A,3138.3822,S,06040.4578,W,0.05,53.41,051213,,,A*55
$GPRMC,213119.000,A,3138.3822,S,06040.4578,W,0.07,53.41,051213,,,A*56
$GPRMC,213120.000,A,3138.3822,S,06040.4578,W,1.23,10.02,051213,,,A*5B
$GPRMC,213121.000,A,3138.3821,S,06040.4577,W,0.39,10.02,051213,,,A*5C
$GPRMC,213122.000,A,3138.3824,S,06040.4576,W,3.26,178.84,051213,,,A*67
$GPRMC,213123.000,A,3138.3829,S,06040.4577,W,0.75,231.94,051213,,,A*60
$GPRMC,213124.000,A,3138.3829,S,06040.4578,W,0.47,231.94,051213,,,A*69
$GPRMC,213125.000,A,3138.3835,S,06040.4578,W,0.06,231.94,051213,,,A*60
$GPRMC,213126.000,A,3138.3835,S,06040.4579,W,0.66,104.02,051213,,,A*6E
$GPRMC,213127.000,A,3138.3834,S,06040.4575,W,1.13,85.35,051213,,,A*5D
$GPRMC,213128.000,A,3138.3835,S,06040.4573,W,0.62,100.65,051213,,,A*6B
$GPRMC,213129.000,A,3138.3839,S,06040.4568,W,1.51,117.77,051213,,,A*68
$GPRMC,213130.000,A,3138.3843,S,06040.4562,W,1.56,122.37,051213,,,A*62
$GPRMC,213131.000,A,3138.3845,S,06040.4559,W,0.98,72.84,051213,,,A*52
$GPRMC,213132.000,A,3138.3844,S,06040.4556,W,1.19,92.24,051213,,,A*53
$GPRMC,213133.000,A,3138.3844,S,06040.4553,W,1.17,116.74,051213,,,A*61
$GPRMC,213134.000,A,3138.3844,S,06040.4552,W,0.14,116.74,051213,,,A*65
$GPRMC,213135.000,A,3138.3845,S,06040.4552,W,0.51,116.74,051213,,,A*64
$GPRMC,213136.000,A,3138.3846,S,06040.4554,W,2.18,259.57,051213,,,A*64
$GPRMC,213137.000,A,3138.3847,S,06040.4558,W,1.13,251.23,051213,,,A*6B
$GPRMC,213138.000,A,3138.3848,S,06040.4556,W,1.14,141.95,051213,,,A*6D
$GPRMC,213139.000,A,3138.3847,S,06040.4549,W,3.46,139.02,051213,,,A*69
$GPRMC,213140.000,A,3138.3847,S,06040.4545,W,1.99,136.30,051213,,,A*65
$GPRMC,213141.000,A,3138.3850,S,06040.4541,W,1.51,343.78,051213,,,A*6E
$GPRMC,213142.000,A,3138.3847,S,06040.4540,W,1.06,89.11,051213,,,A*52
$GPRMC,213143.000,A,3138.3846,S,06040.4536,W,1.75,85.07,051213,,,A*5C
$GPRMC,213144.000,A,3138.3847,S,06040.4533,W,0.31,85.07,051213,,,A*5E
$GPRMC,213145.000,A,3138.3848,S,06040.4533,W,0.32,85.07,051213,,,A*53
$GPRMC,213146.000,A,3138.3847,S,06040.4528,W,1.76,83.95,051213,,,A*59
$GPRMC,213147.000,A,3138.3846,S,06040.4525,W,0.40,83.95,051213,,,A*50
$GPRMC,213148.000,A,3138.3846,S,06040.4524,W,0.19,83.79,051213,,,A*50
$GPRMC,213149.000,A,3138.3845,S,06040.4523,W,0.47,83.60,051213,,,A*56
$GPRMC,213150.000,A,3138.3844,S,06040.4520,W,2.82,84.49,051213,,,A*5B
$GPRMC,213151.000,A,3138.3844,S,06040.4522,W,0.62,85.08,051213,,,A*50
$GPRMC,213152.000,A,3138.3845,S,06040.4521,W,0.33,85.31,051213,,,A*5F
$GPRMC,213153.000,A,3138.3844,S,06040.4520,W,0.40,85.51,051213,,,A*5C
$GPRMC,213154.000,A,3138.3843,S,06040.4517,W,1.68,85.24,051213,,,A*51
$GPRMC,213155.000,A,3138.3842,S,06040.4514,W,0.41,85.04,051213,,,A*5A
$GPRMC,213156.000,A,3138.3841,S,06040.4514,W,0.35,85.08,051213,,,A*55
$GPRMC,213157.000,A,3138.3841,S,06040.4514,W,1.33,181.63,051213,,,A*6B
$GPRMC,213158.000,A,3138.3844,S,06040.4513,W,0.88,152.63,051213,,,A*69
$GPRMC,213159.000,A,3138.3840,S,06040.4513,W,0.51,152.63,051213,,,A*68
$GPRMC,213200.000,A,3138.3839,S,06040.4513,W,0.49,152.63,051213,,,A*60
$GPRMC,213201.000,A,3138.3834,S,06040.4513,W,1.71,1.79,051213,,,A*6A
$GPRMC,213202.000,A,3138.3831,S,06040.4514,W,0.51,1.79,051213,,,A*68
$GPRMC,213203.000,A,3138.3830,S,06040.4514,W,0.48,1.79,051213,,,A*60
$GPRMC,213204.000,A,3138.3827,S,06040.4514,W,1.34,9.65,051213,,,A*6E
$GPRMC,213205.000,A,3138.3823,S,06040.4514,W,0.78,359.29,051213,,,A*6C
$GPRMC,213206.000,A,3138.3821,S,06040.4514,W,0.38,359.29,051213,,,A*69
$GPRMC,213207.000,A,3138.3819,S,06040.4514,W,1.39,357.06,051213,,,A*60
$GPRMC,213208.000,A,3138.3816,S,06040.4514,W,0.37,357.06,051213,,,A*6F
$GPRMC,213209.000,A,3138.3814,S,06040.4514,W,0.74,354.70,051213,,,A*69
$GPRMC,213210.000,A,3138.3812,S,06040.4514,W,1.28,5.38,051213,,,A*64
$GPRMC,213211.000,A,3138.3809,S,06040.4513,W,0.31,5.38,051213,,,A*61
$GPRMC,213212.000,A,3138.3809,S,06040.4514,W,0.25,5.38,051213,,,A*60
$GPRMC,213213.000,A,3138.3806,S,06040.4514,W,1.53,7.83,051213,,,A*6C
$GPRMC,213214.000,A,3138.3804,S,06040.4514,W,0.35,7.83,051213,,,A*68
$GPRMC,213215.000,A,3138.3802,S,06040.4514,W,0.56,7.83,051213,,,A*6A
$GPRMC,213216.000,A,3138.3799,S,06040.4514,W,1.28,354.90,051213,,,A*6B
$GPRMC,213217.000,A,3138.3797,S,06040.4515,W,0.30,354.90,051213,,,A*6D
$GPRMC,213218.000,A,3138.3796,S,06040.4515,W,0.23,354.90,051213,,,A*61
$GPRMC,213219.000,A,3138.3794,S,06040.4515,W,1.44,359.93,051213,,,A*6C
$GPRMC,213220.000,A,3138.3791,S,06040.4515,W,0.41,359.93,051213,,,A*67
$GPRMC,213221.000,A,3138.3789,S,06040.4515,W,0.34,359.93,051213,,,A*6D
$GPRMC,213222.000,A,3138.3787,S,06040.4516,W,0.75,1.78,051213,,,A*6D
$GPRMC,213223.000,A,3138.3786,S,06040.4516,W,0.19,1.78,051213,,,A*67
$GPRMC,213224.000,A,3138.3786,S,06040.4518,W,0.66,274.71,051213,,,A*6F
$GPRMC,213225.000,A,3138.3786,S,06040.4521,W,0.82,258.08,051213,,,A*6E
$GPRMC,213226.000,A,3138.3786,S,06040.4523,W,0.42,258.08,051213,,,A*63
$GPRMC,213227.000,A,3138.3786,S,06040.4526,W,1.22,276.75,051213,,,A*66
$GPRMC,213228.000,A,3138.3786,S,06040.4529,W,0.39,276.75,051213,,,A*6D
$GPRMC,213229.000,A,3138.3785,S,06040.4531,W,0.71,278.08,051213,,,A*6E
$GPRMC,213230.000,A,3138.3785,S,06040.4535,W,1.15,263.40,051213,,,A*67
$GPRMC,213231.000,A,3138.3785,S,06040.4537,W,0.38,263.40,051213,,,A*6A
$GPRMC,213232.000,A,3138.3785,S,06040.4540,W,1.03,264.32,051213,,,A*62
$GPRMC,213233.000,A,3138.3785,S,06040.4543,W,0.82,265.07,051213,,,A*6F
$GPRMC,213234.000,A,3138.3785,S,06040.4545,W,0.37,265.07,051213,,,A*60
$GPRMC,213235.000,A,3138.3784,S,06040.4548,W,1.36,265.70,051213,,,A*6D
$GPRMC,213236.000,A,3138.3784,S,06040.4550,W,0.48,265.99,051213,,,A*68
$GPRMC,213237.000,A,3138.3784,S,06040.4553,W,0.90,266.53,051213,,,A*6A
$GPRMC,213238.000,A,3138.3783,S,06040.4556,W,0.95,267.25,051213,,,A*62
$GPRMC,213239.000,A,3138.3783,S,06040.4559,W,0.43,267.61,051213,,,A*67
$GPRMC,213240.000,A,3138.3783,S,06040.4561,W,1.04,268.23,051213,,,A*69
$GPRMC,213241.000,A,3138.3783,S,06040.4564,W,0.69,269.26,051213,,,A*63
$GPRMC,213242.000,A,3138.3783,S,06040.4566,W,0.39,269.54,051213,,,A*62
$GPRMC,213243.000,A,3138.3782,S,06040.4569,W,1.19,270.55,051213,,,A*67
$GPRMC,213244.000,A,3138.3782,S,06040.4572,W,0.46,271.04,051213,,,A*64
$GPRMC,213245.000,A,3138.3782,S,06040.4573,W,0.26,271.24,051213,,,A*60
$GPRMC,213246.000,A,3138.3781,S,06040.4575,W,0.87,270.82,051213,,,A*60
$GPRMC,213247.000,A,3138.3781,S,06040.4579,W,1.21,276.84,051213,,,A*60
$GPRMC,213248.000,A,3138.3781,S,06040.4582,W,0.34,276.84,051213,,,A*6E
$GPRMC,213249.000,A,3138.3781,S,06040.4583,W,0.41,276.84,051213,,,A*6C
$GPRMC,213250.000,A,3138.3782,S,06040.4585,W,0.48,276.84,051213,,,A*68
$GPRMC,213251.000,A,3138.3784,S,06040.4585,W,0.54,154.07,051213,,,A*6A
$GPRMC,213252.000,A,3138.3786,S,06040.4585,W,1.25,186.22,051213,,,A*64
$GPRMC,213253.000,A,3138.3789,S,06040.4585,W,0.41,186.22,051213,,,A*69
$GPRMC,213254.000,A,3138.3790,S,06040.4584,W,0.35,186.22,051213,,,A*64
$GPRMC,213255.000,A,3138.3792,S,06040.4585,W,1.27,188.34,051213,,,A*6D
$GPRMC,213256.000,A,3138.3795,S,06040.4585,W,0.56,188.34,051213,,,A*6E
$GPRMC,213257.000,A,3138.3796,S,06040.4585,W,0.27,188.34,051213,,,A*6A
$GPRMC,213258.000,A,3138.3797,S,06040.4584,W,0.30,188.84,051213,,,A*68
$GPRMC,213259.000,A,3138.3798,S,06040.4584,W,0.50,189.00,051213,,,A*6D
$GPRMC,213300.000,A,3138.3799,S,06040.4585,W,1.30,174.62,051213,,,A*61
$GPRMC,213301.000,A,3138.3801,S,06040.4585,W,0.44,174.62,051213,,,A*6C
$GPRMC,213302.000,A,3138.3802,S,06040.4585,W,0.46,174.62,051213,,,A*6E
$GPRMC,213303.000,A,3138.3805,S,06040.4584,W,1.47,182.23,051213,,,A*65
$GPRMC,213304.000,A,3138.3808,S,06040.4585,W,0.58,182.23,051213,,,A*61
$GPRMC,213305.000,A,3138.3809,S,06040.4585,W,0.15,182.23,051213,,,A*68
$GPRMC,213306.000,A,3138.3809,S,06040.4584,W,0.18,182.23,051213,,,A*67
$GPRMC,213307.000,A,3138.3811,S,06040.4585,W,1.38,182.57,051213,,,A*6E
$GPRMC,213308.000,A,3138.3813,S,06040.4585,W,0.34,182.57,051213,,,A*6E
$GPRMC,213309.000,A,3138.3814,S,06040.4585,W,0.27,182.62,051213,,,A*6C
$GPRMC,213310.000,A,3138.3816,S,06040.4585,W,0.87,171.31,051213,,,A*66
$GPRMC,213311.000,A,3138.3819,S,06040.4585,W,1.37,173.05,051213,,,A*67
$GPRMC,213312.000,A,3138.3821,S,06040.4586,W,0.21,173.05,051213,,,A*6A
$GPRMC,213313.000,A,3138.3822,S,06040.4586,W,0.18,173.05,051213,,,A*62
$GPRMC,213314.000,A,3138.3824,S,06040.4586,W,1.51,174.28,051213,,,A*67
$GPRMC,213315.000,A,3138.3827,S,06040.4586,W,0.43,174.28,051213,,,A*67
$GPRMC,213316.000,A,3138.3828,S,06040.4586,W,0.24,174.28,051213,,,A*6A
$GPRMC,213317.000,A,3138.3830,S,06040.4586,W,0.67,173.25,051213,,,A*6F
$GPRMC,213318.000,A,3138.3833,S,06040.4586,W,1.58,174.23,051213,,,A*6F
$GPRMC,213319.000,A,3138.3836,S,06040.4585,W,0.49,174.09,051213,,,A*61
$GPRMC,213320.000,A,3138.3837,S,06040.4586,W,0.17,174.11,051213,,,A*6B
$GPRMC,213321.000,A,3138.3838,S,06040.4586,W,0.11,174.17,051213,,,A*65
$GPRMC,213322.000,A,3138.3838,S,06040.4585,W,0.07,174.29,051213,,,A*6F
$GPRMC,213323.000,A,3138.3838,S,06040.4585,W,0.04,174.29,051213,,,A*6D
$GPRMC,213324.000,A,3138.3838,S,06040.4585,W,0.02,174.29,051213,,,A*6C
$GPRMC,213325.000,A,3138.3838,S,06040.4585,W,0.00,174.29,051213,,,A*6F
$GPRMC,213326.000,A,3138.3838,S,06040.4585,W,0.02,174.29,051213,,,A*6E
$GPRMC,213327.000,A,3138.3838,S,06040.4585,W,0.02,174.29,051213,,,A*6F
$GPRMC,213328.000,A,3138.3838,S,06040.4585,W,0.04,174.29,051213,,,A*66
$GPRMC,213329.000,A,3138.3839,S,06040.4585,W,0.01,174.29,051213,,,A*63
$GPRMC,213330.000,A,3138.3839,S,06040.4585,W,0.02,174.29,051213,,,A*68
$GPRMC,213331.000,A,3138.3839,S,06040.4585,W,0.01,174.29,051213,,,A*6A
