$GPRMC,215006.491,A,3138.3635,S,06040.4651,W,10.79,318.31,051213,,,A*50
$GPRMC,215007.491,A,3138.3796,S,06040.4563,W,8.84,319.34,051213,,,A*64
$GPRMC,215008.491,A,3138.3797,S,06040.4571,W,5.88,327.69,051213,,,A*6D
$GPRMC,215010.000,A,3138.3794,S,06040.4572,W,3.63,325.33,051213,,,A*66
$GPRMC,215011.000,A,3138.3804,S,06040.4568,W,1.22,315.69,051213,,,A*61
$GPRMC,215012.000,A,3138.3810,S,06040.4568,W,0.10,315.69,051213,,,A*67
$GPRMC,215013.000,A,3138.3815,S,06040.4571,W,0.31,315.69,051213,,,A*68
$GPRMC,215014.000,A,3138.3817,S,06040.4572,W,0.22,315.69,051213,,,A*6C
$GPRMC,215015.000,A,3138.3819,S,06040.4574,W,0.11,315.69,051213,,,A*65
$GPRMC,215016.000,A,3138.3821,S,06040.4575,W,0.12,315.69,051213,,,A*6F
$GPRMC,215017.000,A,3138.3823,S,06040.4576,W,0.08,315.69,051213,,,A*64
$GPRMC,215018.000,A,3138.3824,S,06040.4576,W,0.23,315.69,051213,,,A*65
$GPRMC,215019.000,A,3138.3824,S,06040.4577,W,0.12,315.69,051213,,,A*67
$GPRMC,215020.000,A,3138.3824,S,06040.4577,W,0.11,315.69,051213,,,A*6E
$GPRMC,215021.000,A,3138.3824,S,06040.4576,W,0.14,315.69,051213,,,A*6B
$GPRMC,215022.000,A,3138.3824,S,06040.4575,W,0.08,315.69,051213,,,A*66
$GPRMC,215023.000,A,3138.3825,S,06040.4575,W,0.00,315.69,051213,,,A*6E
$GPRMC,215024.000,A,3138.3825,S,06040.4575,W,0.03,315.69,051213,,,A*6A
$GPRMC,215025.000,A,3138.3826,S,06040.4575,W,0.03,315.69,051213,,,A*68
$GPRMC,215026.000,A,3138.3826,S,06040.4576,W,0.03,315.69,051213,,,A*68
$GPRMC,215027.000,A,3138.3825,S,06040.4576,W,0.08,315.69,051213,,,A*61
$GPRMC,215028.000,A,3138.3825,S,06040.4576,W,0.11,315.69,051213,,,A*66
$GPRMC,215029.000,A,3138.3825,S,06040.4576,W,0.20,315.69,051213,,,A*65
$GPRMC,215030.000,A,3138.3826,S,06040.4576,W,0.08,315.69,051213,,,A*64
$GPRMC,215031.000,A,3138.3826,S,06040.4577,W,0.13,315.69,051213,,,A*6E
$GPRMC,215032.000,A,3138.3827,S,06040.4577,W,0.11,315.69,051213,,,A*6E
$GPRMC,215033.000,A,3138.3829,S,06040.4577,W,0.05,315.69,051213,,,A*64
$GPRMC,215034.000,A,3138.3829,S,06040.4576,W,0.54,315.69,051213,,,A*66
$GPRMC,215035.000,A,3138.3829,S,06040.4574,W,0.18,315.69,051213,,,A*6D
$GPRMC,215036.000,A,3138.3830,S,06040.4574,W,0.09,315.69,051213,,,A*66
$GPRMC,215037.000,A,3138.3830,S,06040.4574,W,0.03,315.69,051213,,,A*6D
$GPRMC,215038.000,A,3138.3830,S,06040.4574,W,0.03,315.69,051213,,,A*62
$GPRMC,215039.000,A,3138.3831,S,06040.4574,W,0.04,315.69,051213,,,A*65
$GPRMC,215040.000,A,3138.3831,S,06040.4573,W,0.09,315.69,051213,,,A*61
$GPRMC,215041.000,A,3138.3830,S,06040.4572,W,0.82,72.24,051213,,,A*58
$GPRMC,215042.000,A,3138.3830,S,06040.4566,W,2.07,74.40,051213,,,A*55
$GPRMC,215043.000,A,3138.3830,S,06040.4560,W,1.80,96.32,051213,,,A*57
$GPRMC,215044.000,A,3138.3830,S,06040.4560,W,0.24,96.32,051213,,,A*5F
$GPRMC,215045.000,A,3138.3830,S,06040.4562,W,1.30,266.34,051213,,,A*63
$GPRMC,215046.000,A,3138.3830,S,06040.4563,W,0.52,266.34,051213,,,A*64
$GPRMC,215047.000,A,3138.3830,S,06040.4559,W,1.98,96.48,051213,,,A*5D
$GPRMC,215048.000,A,3138.3831,S,06040.4553,W,1.79,96.59,051213,,,A*56
$GPRMC,215049.000,A,3138.3831,S,06040.4551,W,1.01,96.08,051213,,,A*5E
$GPRMC,215050.000,A,3138.3831,S,06040.4551,W,1.07,269.85,051213,,,A*67
$GPRMC,215051.000,A,3138.3830,S,06040.4553,W,1.09,271.17,051213,,,A*69
$GPRMC,215052.000,A,3138.3829,S,06040.4553,W,0.58,271.17,051213,,,A*67
$GPRMC,215053.000,A,3138.3829,S,06040.4550,W,1.92,93.31,051213,,,A*58
$GPRMC,215054.000,A,3138.3830,S,06040.4543,W,1.96,93.87,051213,,,A*5C
$GPRMC,215055.000,A,3138.3830,S,06040.4538,W,1.12,93.28,051213,,,A*58
$GPRMC,215056.000,A,3138.3830,S,06040.4538,W,0.33,93.28,051213,,,A*59
$GPRMC,215057.000,A,3138.3830,S,06040.4540,W,1.20,272.15,051213,,,A*67
$GPRMC,215058.000,A,3138.3830,S,06040.4543,W,0.60,271.00,051213,,,A*69
$GPRMC,215059.000,A,3138.3830,S,06040.4540,W,1.78,92.91,051213,,,A*54
$GPRMC,215100.000,A,3138.3830,S,06040.4533,W,2.10,94.22,051213,,,A*5E
$GPRMC,215101.000,A,3138.3830,S,06040.4527,W,1.57,94.53,051213,,,A*5C
$GPRMC,215102.000,A,3138.3830,S,06040.4527,W,0.09,94.53,051213,,,A*55
$GPRMC,215103.000,A,3138.3830,S,06040.4529,W,1.23,286.65,051213,,,A*67
$GPRMC,215104.000,A,3138.3829,S,06040.4533,W,0.94,259.77,051213,,,A*6F
$GPRMC,215105.000,A,3138.3829,S,06040.4532,W,0.77,89.90,051213,,,A*54
$GPRMC,215106.000,A,3138.3830,S,06040.4527,W,1.82,91.06,051213,,,A*56
$GPRMC,215107.000,A,3138.3829,S,06040.4524,W,1.81,90.20,051213,,,A*5A
$GPRMC,215108.000,A,3138.3830,S,06040.4519,W,1.29,90.93,051213,,,A*59
$GPRMC,215109.000,A,3138.3830,S,06040.4520,W,0.88,283.14,051213,,,A*67
$GPRMC,215110.000,A,3138.3830,S,06040.4523,W,1.09,256.99,051213,,,A*69
$GPRMC,215111.000,A,3138.3829,S,06040.4522,W,0.51,256.99,051213,,,A*6D
$GPRMC,215112.000,A,3138.3829,S,06040.4518,W,1.56,80.33,051213,,,A*58
$GPRMC,215113.000,A,3138.3827,S,06040.4517,W,1.18,75.05,051213,,,A*5D
$GPRMC,215114.000,A,3138.3824,S,06040.4516,W,1.48,358.59,051213,,,A*68
$GPRMC,215115.000,A,3138.3822,S,06040.4517,W,0.27,358.59,051213,,,A*66
$GPRMC,215116.000,A,3138.3823,S,06040.4518,W,0.68,207.88,051213,,,A*67
$GPRMC,215117.000,A,3138.3823,S,06040.4518,W,0.63,24.48,051213,,,A*52
$GPRMC,215118.000,A,3138.3820,S,06040.4518,W,1.78,22.14,051213,,,A*5A
$GPRMC,215119.000,A,3138.3815,S,06040.4518,W,1.79,20.08,051213,,,A*53
$GPRMC,215120.000,A,3138.3812,S,06040.4519,W,1.42,18.52,051213,,,A*53
$GPRMC,215121.000,A,3138.3810,S,06040.4519,W,0.11,18.52,051213,,,A*57
$GPRMC,215122.000,A,3138.3812,S,06040.4519,W,0.76,200.13,051213,,,A*69
$GPRMC,215123.000,A,3138.3814,S,06040.4519,W,0.80,166.77,051213,,,A*66
$GPRMC,215124.000,A,3138.3814,S,06040.4519,W,0.29,166.77,051213,,,A*62
$GPRMC,215125.000,A,3138.3811,S,06040.4519,W,1.79,7.98,051213,,,A*65
$GPRMC,215126.000,A,3138.3806,S,06040.4518,W,2.00,5.01,051213,,,A*6E
$GPRMC,215127.000,A,3138.3801,S,06040.4518,W,1.95,2.48,051213,,,A*6D
$GPRMC,215128.000,A,3138.3800,S,06040.4519,W,0.75,353.28,051213,,,A*6C
$GPRMC,215129.000,A,3138.3801,S,06040.4517,W,0.58,178.11,051213,,,A*6C
$GPRMC,215130.000,A,3138.3804,S,06040.4516,W,1.05,174.68,051213,,,A*6B
$GPRMC,215131.000,A,3138.3805,S,06040.4516,W,0.21,174.68,051213,,,A*6C
$GPRMC,215132.000,A,3138.3802,S,06040.4516,W,1.73,358.90,051213,,,A*65
$GPRMC,215133.000,A,3138.3796,S,06040.4515,W,2.01,2.88,051213,,,A*66
$GPRMC,215134.000,A,3138.3791,S,06040.4515,W,1.53,4.42,051213,,,A*62
$GPRMC,215135.000,A,3138.3790,S,06040.4516,W,0.10,4.42,051213,,,A*67
$GPRMC,215136.000,A,3138.3791,S,06040.4516,W,0.98,189.33,051213,,,A*67
$GPRMC,215137.000,A,3138.3793,S,06040.4516,W,0.92,168.39,051213,,,A*6B
$GPRMC,215138.000,A,3138.3793,S,06040.4516,W,0.50,168.39,051213,,,A*6A
$GPRMC,215139.000,A,3138.3790,S,06040.4516,W,1.65,1.74,051213,,,A*68
$GPRMC,215140.000,A,3138.3785,S,06040.4518,W,1.70,350.67,051213,,,A*6D
$GPRMC,215141.000,A,3138.3782,S,06040.4521,W,1.29,293.95,051213,,,A*6E
$GPRMC,215142.000,A,3138.3781,S,06040.4524,W,0.95,276.62,051213,,,A*6E
$GPRMC,215143.000,A,3138.3780,S,06040.4523,W,0.93,85.79,051213,,,A*5B
$GPRMC,215144.000,A,3138.3780,S,06040.4522,W,0.72,86.54,051213,,,A*5E
$GPRMC,215145.000,A,3138.3781,S,06040.4523,W,1.28,268.30,051213,,,A*61
$GPRMC,215146.000,A,3138.3780,S,06040.4527,W,1.76,270.44,051213,,,A*66
$GPRMC,215147.000,A,3138.3780,S,06040.4532,W,1.79,273.24,051213,,,A*69
$GPRMC,215148.000,A,3138.3779,S,06040.4535,W,1.05,272.20,051213,,,A*69
$GPRMC,215149.000,A,3138.3779,S,06040.4534,W,0.44,272.20,051213,,,A*6D
$GPRMC,215150.000,A,3138.3779,S,06040.4532,W,0.99,89.73,051213,,,A*53
$GPRMC,215151.000,A,3138.3780,S,06040.4531,W,0.18,89.73,051213,,,A*5E
$GPRMC,215152.000,A,3138.3780,S,06040.4534,W,1.75,278.64,051213,,,A*68
$GPRMC,215153.000,A,3138.3780,S,06040.4539,W,1.76,277.95,051213,,,A*66
$GPRMC,215154.000,A,3138.3779,S,06040.4543,W,1.57,276.09,051213,,,A*6D
$GPRMC,215155.000,A,3138.3778,S,06040.4545,W,0.55,276.09,051213,,,A*68
$GPRMC,215156.000,A,3138.3778,S,06040.4544,W,0.96,95.21,051213,,,A*50
$GPRMC,215157.000,A,3138.3779,S,06040.4543,W,0.28,95.21,051213,,,A*52
$GPRMC,215158.000,A,3138.3779,S,06040.4546,W,1.79,278.34,051213,,,A*68
$GPRMC,215159.000,A,3138.3778,S,06040.4552,W,1.82,278.49,051213,,,A*63
$GPRMC,215200.000,A,3138.3777,S,06040.4557,W,1.82,276.85,051213,,,A*68
$GPRMC,215201.000,A,3138.3776,S,06040.4560,W,1.15,275.72,051213,,,A*69
$GPRMC,215202.000,A,3138.3776,S,06040.4560,W,0.87,111.65,051213,,,A*67
$GPRMC,215203.000,A,3138.3776,S,06040.4559,W,0.89,108.07,051213,,,A*6E
$GPRMC,215204.000,A,3138.3776,S,06040.4557,W,0.41,108.07,051213,,,A*63
$GPRMC,215205.000,A,3138.3777,S,06040.4561,W,2.50,263.64,051213,,,A*6F
$GPRMC,215206.000,A,3138.3778,S,06040.4568,W,1.73,272.74,051213,,,A*69
$GPRMC,215207.000,A,3138.3777,S,06040.4571,W,1.72,271.08,051213,,,A*66
$GPRMC,215208.000,A,3138.3776,S,06040.4573,W,0.15,271.08,051213,,,A*6A
$GPRMC,215209.000,A,3138.3776,S,06040.4571,W,0.90,88.55,051213,,,A*58
$GPRMC,215210.000,A,3138.3777,S,06040.4571,W,0.52,88.55,051213,,,A*5F
$GPRMC,215211.000,A,3138.3778,S,06040.4573,W,1.19,224.62,051213,,,A*6D
$GPRMC,215212.000,A,3138.3781,S,06040.4575,W,1.50,220.76,051213,,,A*62
$GPRMC,215213.000,A,3138.3786,S,06040.4575,W,1.70,216.62,051213,,,A*66
$GPRMC,215214.000,A,3138.3791,S,06040.4574,W,1.46,177.07,051213,,,A*64
$GPRMC,215215.000,A,3138.3793,S,06040.4574,W,0.04,177.07,051213,,,A*60
$GPRMC,215216.000,A,3138.3791,S,06040.4574,W,1.15,0.80,051213,,,A*6E
$GPRMC,215217.000,A,3138.3788,S,06040.4574,W,0.93,356.97,051213,,,A*6E
$GPRMC,215218.000,A,3138.3787,S,06040.4574,W,0.25,356.97,051213,,,A*63
$GPRMC,215219.000,A,3138.3788,S,06040.4573,W,1.48,185.28,051213,,,A*68
$GPRMC,215220.000,A,3138.3793,S,06040.4573,W,2.01,186.65,051213,,,A*6C
$GPRMC,215221.000,A,3138.3799,S,06040.4574,W,1.98,184.68,051213,,,A*6C
$GPRMC,215222.000,A,3138.3804,S,06040.4574,W,1.60,175.90,051213,,,A*6A
$GPRMC,215223.000,A,3138.3806,S,06040.4574,W,0.41,175.90,051213,,,A*6B
$GPRMC,215224.000,A,3138.3806,S,06040.4573,W,0.79,24.50,051213,,,A*59
$GPRMC,215225.000,A,3138.3803,S,06040.4573,W,1.16,1.72,051213,,,A*62
$GPRMC,215226.000,A,3138.3801,S,06040.4572,W,0.51,1.72,051213,,,A*60
$GPRMC,215227.000,A,3138.3802,S,06040.4572,W,1.14,195.80,051213,,,A*63
$GPRMC,215228.000,A,3138.3807,S,06040.4572,W,1.87,194.76,051213,,,A*6B
$GPRMC,215229.000,A,3138.3812,S,06040.4572,W,1.82,180.19,051213,,,A*67
$GPRMC,215230.000,A,3138.3816,S,06040.4572,W,1.15,175.82,051213,,,A*6D
$GPRMC,215231.000,A,3138.3818,S,06040.4571,W,0.10,175.82,051213,,,A*65
$GPRMC,215232.000,A,3138.3817,S,06040.4571,W,0.90,9.15,051213,,,A*65
$GPRMC,215233.000,A,3138.3815,S,06040.4571,W,0.82,342.00,051213,,,A*6D
$GPRMC,215234.000,A,3138.3816,S,06040.4570,W,1.14,170.11,051213,,,A*65
$GPRMC,215235.000,A,3138.3820,S,06040.4570,W,1.66,171.76,051213,,,A*64
$GPRMC,215236.000,A,3138.3825,S,06040.4570,W,1.66,172.29,051213,,,A*6B
$GPRMC,215237.000,A,3138.3829,S,06040.4569,W,0.80,173.53,051213,,,A*6B
$GPRMC,215238.000,A,3138.3829,S,06040.4569,W,0.82,2.80,051213,,,A*6F
$GPRMC,215239.000,A,3138.3827,S,06040.4569,W,1.27,345.63,051213,,,A*63
$GPRMC,215240.000,A,3138.3825,S,06040.4569,W,0.64,24.54,051213,,,A*59
$GPRMC,215241.000,A,3138.3826,S,06040.4568,W,1.24,186.53,051213,,,A*61
$GPRMC,215242.000,A,3138.3831,S,06040.4569,W,1.96,185.94,051213,,,A*64
$GPRMC,215243.000,A,3138.3835,S,06040.4568,W,1.25,183.98,051213,,,A*62
$GPRMC,215244.000,A,3138.3836,S,06040.4568,W,0.12,183.98,051213,,,A*63
$GPRMC,215245.000,A,3138.3836,S,06040.4568,W,0.43,183.98,051213,,,A*66
$GPRMC,215246.000,A,3138.3836,S,06040.4568,W,0.09,183.98,051213,,,A*6B
$GPRMC,215247.000,A,3138.3836,S,06040.4568,W,0.11,183.98,051213,,,A*63
$GPRMC,215248.000,A,3138.3836,S,06040.4569,W,0.01,183.98,051213,,,A*6C
$GPRMC,215249.000,A,3138.3836,S,06040.4569,W,0.24,183.98,051213,,,A*6A
$GPRMC,215250.000,A,3138.3836,S,06040.4569,W,0.09,183.98,051213,,,A*6D
$GPRMC,215251.000,A,3138.3836,S,06040.4570,W,0.08,183.98,051213,,,A*65
$GPRMC,215252.000,A,3138.3836,S,06040.4570,W,0.11,183.98,051213,,,A*6E
$GPRMC,215253.000,A,3138.3836,S,06040.4570,W,0.03,183.98,051213,,,A*6C
$GPRMC,215254.000,A,3138.3836,S,06040.4570,W,0.01,183.98,051213,,,A*69
$GPRMC,215255.000,A,3138.3836,S,06040.4570,W,0.06,183.98,051213,,,A*6F
$GPRMC,215256.000,A,3138.3836,S,06040.4570,W,0.18,183.98,051213,,,A*63
$GPRMC,215257.000,A,3138.3836,S,06040.4570,W,0.06,183.98,051213,,,A*6D
$GPRMC,215258.000,A,3138.3836,S,06040.4570,W,0.04,183.98,051213,,,A*60
$GPRMC,215259.000,A,3138.3836,S,06040.4570,W,0.02,183.98,051213,,,A*67
$GPRMC,215300.000,A,3138.3836,S,06040.4570,W,0.01,183.98,051213,,,A*69
$GPRMC,215301.000,A,3138.3836,S,06040.4570,W,0.02,183.98,051213,,,A*6B
$GPRMC,215302.000,A,3138.3836,S,06040.4570,W,0.03,183.98,051213,,,A*69
$GPRMC,215303.000,A,3138.3836,S,06040.4570,W,0.01,183.98,051213,,,A*6A
$GPRMC,215304.000,A,3138.3836,S,06040.4570,W,0.02,183.98,051213,,,A*6E
$GPRMC,215305.000,A,3138.3836,S,06040.4570,W,0.02,183.98,051213,,,A*6F
$GPRMC,215306.000,A,3138.3836,S,06040.4570,W,0.02,183.98,051213,,,A*6C
$GPRMC,215307.000,A,3138.3836,S,06040.4570,W,0.03,183.98,051213,,,A*6C
$GPRMC,215308.000,A,3138.3836,S,06040.4570,W,0.01,183.98,051213,,,A*61
$GPRMC,215309.000,A,3138.3836,S,06040.4570,W,0.02,183.98,051213,,,A*63
$GPRMC,215310.000,A,3138.3836,S,06040.4570,W,0.01,183.98,051213,,,A*68
$GPRMC,215311.000,A,3138.3836,S,06040.4570,W,0.59,183.98,051213,,,A*64
$GPRMC,215312.000,A,3138.3836,S,06040.4570,W,1.56,183.98,051213,,,A*69
$GPRMC,215313.000,A,3138.3836,S,06040.4564,W,1.80,93.87,051213,,,A*58
$GPRMC,215314.000,A,3138.3835,S,06040.4558,W,1.77,94.63,051213,,,A*56
$GPRMC,215315.000,A,3138.3836,S,06040.4555,W,0.50,94.63,051213,,,A*5D
$GPRMC,215316.000,A,3138.3835,S,06040.4556,W,0.81,269.33,051213,,,A*67
$GPRMC,215317.000,A,3138.3835,S,06040.4559,W,1.08,284.97,051213,,,A*64
$GPRMC,215318.000,A,3138.3835,S,06040.4560,W,0.61,100.85,051213,,,A*63
$GPRMC,215319.000,A,3138.3836,S,06040.4555,W,1.78,99.88,051213,,,A*52
$GPRMC,215320.000,A,3138.3836,S,06040.4549,W,1.84,98.96,051213,,,A*58
$GPRMC,215321.000,A,3138.3836,S,06040.4543,W,1.51,98.76,051213,,,A*55
$GPRMC,215322.000,A,3138.3836,S,06040.4540,W,0.42,98.76,051213,,,A*56
$GPRMC,215323.000,A,3138.3836,S,06040.4541,W,0.88,268.31,051213,,,A*6E
$GPRMC,215324.000,A,3138.3836,S,06040.4544,W,0.82,269.98,051213,,,A*64
$GPRMC,215325.000,A,3138.3836,S,06040.4544,W,0.79,88.60,051213,,,A*5B
$GPRMC,215326.000,A,3138.3836,S,06040.4539,W,1.84,94.46,051213,,,A*58
$GPRMC,215327.000,A,3138.3836,S,06040.4533,W,1.85,91.55,051213,,,A*55
$GPRMC,215328.000,A,3138.3835,S,06040.4528,W,1.70,93.29,051213,,,A*50
$GPRMC,215329.000,A,3138.3836,S,06040.4523,W,0.88,118.44,051213,,,A*66
$GPRMC,215330.000,A,3138.3836,S,06040.4523,W,0.84,282.44,051213,,,A*62
$GPRMC,215331.000,A,3138.3835,S,06040.4526,W,1.29,281.61,051213,,,A*67
$GPRMC,215332.000,A,3138.3835,S,06040.4529,W,0.44,281.61,051213,,,A*61
$GPRMC,215333.000,A,3138.3835,S,06040.4527,W,1.53,96.26,051213,,,A*5E
$GPRMC,215334.000,A,3138.3835,S,06040.4521,W,1.97,96.45,051213,,,A*52
$GPRMC,215335.000,A,3138.3835,S,06040.4515,W,1.74,95.20,051213,,,A*59
$GPRMC,215336.000,A,3138.3836,S,06040.4508,W,1.20,93.03,051213,,,A*53
$GPRMC,215337.000,A,3138.3836,S,06040.4507,W,0.42,93.03,051213,,,A*58
$GPRMC,215338.000,A,3138.3836,S,06040.4509,W,1.09,266.11,051213,,,A*6C
$GPRMC,215339.000,A,3138.3835,S,06040.4512,W,0.54,266.11,051213,,,A*6D
$GPRMC,215340.000,A,3138.3835,S,06040.4511,W,1.12,98.24,051213,,,A*56
$GPRMC,215341.000,A,3138.3834,S,06040.4508,W,1.08,32.88,051213,,,A*53
$GPRMC,215342.000,A,3138.3830,S,06040.4508,W,1.62,0.38,051213,,,A*62
$GPRMC,215343.000,A,3138.3825,S,06040.4508,W,1.62,0.95,051213,,,A*60
$GPRMC,215344.000,A,3138.3822,S,06040.4508,W,0.62,2.47,051213,,,A*6C
$GPRMC,215345.000,A,3138.3822,S,06040.4508,W,1.14,186.14,051213,,,A*66
$GPRMC,215346.000,A,3138.3825,S,06040.4508,W,0.63,185.67,051213,,,A*64
$GPRMC,215347.000,A,3138.3824,S,06040.4509,W,1.05,354.72,051213,,,A*6E
$GPRMC,215348.000,A,3138.3819,S,06040.4509,W,2.05,1.53,051213,,,A*6C
$GPRMC,215349.000,A,3138.3813,S,06040.4509,W,1.72,7.65,051213,,,A*67
$GPRMC,215350.000,A,3138.3809,S,06040.4508,W,1.39,15.59,051213,,,A*56
$GPRMC,215351.000,A,3138.3805,S,06040.4508,W,0.61,17.51,051213,,,A*5D
$GPRMC,215352.000,A,3138.3805,S,06040.4508,W,1.51,173.35,051213,,,A*6D
$GPRMC,215353.000,A,3138.3810,S,06040.4507,W,1.45,172.43,051213,,,A*62
$GPRMC,215354.000,A,3138.3810,S,06040.4507,W,1.06,354.60,051213,,,A*65
$GPRMC,215355.000,A,3138.3805,S,06040.4508,W,1.81,3.20,051213,,,A*65
$GPRMC,215356.000,A,3138.3800,S,06040.4508,W,1.88,1.90,051213,,,A*63
$GPRMC,215357.000,A,3138.3795,S,06040.4508,W,1.56,2.82,051213,,,A*62
$GPRMC,215358.000,A,3138.3793,S,06040.4507,W,0.36,2.82,051213,,,A*63
$GPRMC,215359.000,A,3138.3794,S,06040.4507,W,1.35,184.10,051213,,,A*63
$GPRMC,215400.000,A,3138.3797,S,06040.4508,W,0.87,185.84,051213,,,A*60
$GPRMC,215401.000,A,3138.3797,S,06040.4508,W,1.04,10.04,051213,,,A*5E
$GPRMC,215402.000,A,3138.3792,S,06040.4507,W,1.92,9.15,051213,,,A*60
$GPRMC,215403.000,A,3138.3786,S,06040.4508,W,2.24,353.50,051213,,,A*68
$GPRMC,215404.000,A,3138.3781,S,06040.4508,W,0.98,13.77,051213,,,A*5F
$GPRMC,215405.000,A,3138.3780,S,06040.4508,W,0.52,13.77,051213,,,A*59
$GPRMC,215406.000,A,3138.3781,S,06040.4507,W,1.40,164.71,051213,,,A*61
$GPRMC,215407.000,A,3138.3784,S,06040.4507,W,0.85,184.64,051213,,,A*67
$GPRMC,215408.000,A,3138.3784,S,06040.4507,W,1.02,6.11,051213,,,A*6F
$GPRMC,215409.000,A,3138.3780,S,06040.4508,W,1.38,322.39,051213,,,A*63
$GPRMC,215410.000,A,3138.3779,S,06040.4512,W,1.66,273.42,051213,,,A*64
$GPRMC,215411.000,A,3138.3778,S,06040.4518,W,1.89,273.07,051213,,,A*6E
$GPRMC,215412.000,A,3138.3778,S,06040.4521,W,0.10,273.07,051213,,,A*66
$GPRMC,215413.000,A,3138.3779,S,06040.4520,W,1.03,99.82,051213,,,A*5F
$GPRMC,215414.000,A,3138.3779,S,06040.4519,W,0.23,99.82,051213,,,A*51
$GPRMC,215415.000,A,3138.3779,S,06040.4523,W,1.80,267.15,051213,,,A*6C
$GPRMC,215416.000,A,3138.3779,S,06040.4530,W,1.97,267.25,051213,,,A*68
$GPRMC,215417.000,A,3138.3779,S,06040.4536,W,1.80,275.69,051213,,,A*62
$GPRMC,215418.000,A,3138.3779,S,06040.4540,W,0.72,283.23,051213,,,A*67
$GPRMC,215419.000,A,3138.3779,S,06040.4540,W,1.15,96.97,051213,,,A*5F
$GPRMC,215420.000,A,3138.3779,S,06040.4538,W,0.50,96.97,051213,,,A*5A
$GPRMC,215421.000,A,3138.3779,S,06040.4539,W,1.26,265.06,051213,,,A*6C
$GPRMC,215422.000,A,3138.3780,S,06040.4545,W,1.95,265.92,051213,,,A*67
$GPRMC,215423.000,A,3138.3779,S,06040.4551,W,1.51,279.77,051213,,,A*6B
$GPRMC,215424.000,A,3138.3779,S,06040.4556,W,0.06,279.77,051213,,,A*68
$GPRMC,215425.000,A,3138.3780,S,06040.4555,W,1.19,99.59,051213,,,A*53
$GPRMC,215426.000,A,3138.3780,S,06040.4553,W,0.65,71.03,051213,,,A*55
$GPRMC,215427.000,A,3138.3781,S,06040.4555,W,1.70,232.78,051213,,,A*6F
$GPRMC,215428.000,A,3138.3783,S,06040.4560,W,2.02,234.84,051213,,,A*67
$GPRMC,215429.000,A,3138.3784,S,06040.4566,W,2.01,238.45,051213,,,A*65
$GPRMC,215430.000,A,3138.3784,S,06040.4570,W,1.32,241.11,051213,,,A*66
$GPRMC,215431.000,A,3138.3784,S,06040.4570,W,1.04,89.12,051213,,,A*57
$GPRMC,215432.000,A,3138.3785,S,06040.4566,W,1.06,119.28,051213,,,A*61
$GPRMC,215433.000,A,3138.3785,S,06040.4566,W,1.26,293.57,051213,,,A*6B
$GPRMC,215434.000,A,3138.3786,S,06040.4570,W,1.54,289.95,051213,,,A*68
$GPRMC,215435.000,A,3138.3788,S,06040.4572,W,1.26,197.22,051213,,,A*60
$GPRMC,215436.000,A,3138.3791,S,06040.4574,W,2.29,181.63,051213,,,A*63
$GPRMC,215437.000,A,3138.3796,S,06040.4573,W,1.45,181.94,051213,,,A*63
$GPRMC,215438.000,A,3138.3797,S,06040.4573,W,0.82,340.56,051213,,,A*66
$GPRMC,215439.000,A,3138.3794,S,06040.4573,W,1.29,14.28,051213,,,A*5F
$GPRMC,215440.000,A,3138.3792,S,06040.4572,W,0.24,14.28,051213,,,A*5A
$GPRMC,215441.000,A,3138.3794,S,06040.4572,W,1.78,182.31,051213,,,A*63
$GPRMC,215442.000,A,3138.3800,S,06040.4571,W,2.05,182.06,051213,,,A*6C
$GPRMC,215443.000,A,3138.3805,S,06040.4571,W,1.98,184.52,051213,,,A*68
$GPRMC,215444.000,A,3138.3810,S,06040.4571,W,1.27,183.99,051213,,,A*6F
$GPRMC,215445.000,A,3138.3811,S,06040.4570,W,0.44,183.99,051213,,,A*6A
$GPRMC,215446.000,A,3138.3809,S,06040.4570,W,0.98,356.98,051213,,,A*6A
$GPRMC,215447.000,A,3138.3806,S,06040.4570,W,0.47,356.98,051213,,,A*66
$GPRMC,215448.000,A,3138.3808,S,06040.4570,W,1.46,184.26,051213,,,A*6F
$GPRMC,215449.000,A,3138.3813,S,06040.4570,W,2.00,182.28,051213,,,A*6D
$GPRMC,215450.000,A,3138.3818,S,06040.4570,W,1.67,181.07,051213,,,A*62
$GPRMC,215451.000,A,3138.3820,S,06040.4571,W,0.08,181.07,051213,,,A*61
$GPRMC,215452.000,A,3138.3818,S,06040.4571,W,0.87,6.61,051213,,,A*60
$GPRMC,215453.000,A,3138.3816,S,06040.4570,W,0.38,6.61,051213,,,A*6A
$GPRMC,215454.000,A,3138.3817,S,06040.4570,W,1.45,176.73,051213,,,A*62
$GPRMC,215455.000,A,3138.3822,S,06040.4569,W,1.83,176.84,051213,,,A*6F
$GPRMC,215456.000,A,3138.3826,S,06040.4569,W,1.61,181.27,051213,,,A*65
$GPRMC,215457.000,A,3138.3830,S,06040.4569,W,0.90,189.09,051213,,,A*68
$GPRMC,215458.000,A,3138.3830,S,06040.4569,W,0.85,355.04,051213,,,A*6D
$GPRMC,215459.000,A,3138.3828,S,06040.4569,W,0.61,23.67,051213,,,A*58
$GPRMC,215500.000,A,3138.3829,S,06040.4568,W,1.15,183.19,051213,,,A*65
$GPRMC,215501.000,A,3138.3834,S,06040.4568,W,1.73,182.66,051213,,,A*61
$GPRMC,215502.000,A,3138.3838,S,06040.4568,W,1.13,194.25,051213,,,A*68
$GPRMC,215503.000,A,3138.3840,S,06040.4569,W,0.46,194.25,051213,,,A*66
$GPRMC,215504.000,A,3138.3841,S,06040.4570,W,0.44,194.25,051213,,,A*6A
$GPRMC,215505.000,A,3138.3840,S,06040.4571,W,0.70,11.25,051213,,,A*50
$GPRMC,215506.000,A,3138.3839,S,06040.4570,W,0.34,11.25,051213,,,A*5C
$GPRMC,215507.000,A,3138.3840,S,06040.4570,W,0.09,11.25,051213,,,A*5D
$GPRMC,215508.000,A,3138.3839,S,06040.4569,W,0.68,95.81,051213,,,A*51
$GPRMC,215509.000,A,3138.3840,S,06040.4568,W,0.31,95.81,051213,,,A*53
$GPRMC,215510.000,A,3138.3840,S,06040.4569,W,0.73,258.87,051213,,,A*69
$GPRMC,215511.000,A,3138.3840,S,06040.4570,W,0.15,258.87,051213,,,A*60
$GPRMC,215512.000,A,3138.3840,S,06040.4570,W,0.16,258.87,051213,,,A*60
$GPRMC,215513.000,A,3138.3839,S,06040.4571,W,0.10,258.87,051213,,,A*68
$GPRMC,215514.000,A,3138.3839,S,06040.4571,W,0.06,258.87,051213,,,A*68
$GPRMC,215515.000,A,3138.3839,S,06040.4571,W,0.03,258.87,051213,,,A*6C
$GPRMC,215516.000,A,3138.3839,S,06040.4571,W,0.03,258.87,051213,,,A*6F
$GPRMC,215517.000,A,3138.3839,S,06040.4572,W,0.05,258.87,051213,,,A*6B
$GPRMC,215518.000,A,3138.3839,S,06040.4572,W,0.91,85.44,051213,,,A*54
$GPRMC,215519.000,A,3138.3838,S,06040.4567,W,1.60,76.71,051213,,,A*55
$GPRMC,215520.000,A,3138.3838,S,06040.4561,W,2.00,78.20,051213,,,A*56
$GPRMC,215521.000,A,3138.3838,S,06040.4556,W,1.24,80.36,051213,,,A*56
$GPRMC,215522.000,A,3138.3838,S,06040.4556,W,0.60,271.41,051213,,,A*68
$GPRMC,215523.000,A,3138.3838,S,06040.4559,W,1.35,276.27,051213,,,A*60
$GPRMC,215524.000,A,3138.3838,S,06040.4562,W,0.53,276.27,051213,,,A*6E
$GPRMC,215525.000,A,3138.3838,S,06040.4560,W,1.59,95.07,051213,,,A*5B
$GPRMC,215526.000,A,3138.3838,S,06040.4554,W,2.10,93.61,051213,,,A*57
$GPRMC,215527.000,A,3138.3838,S,06040.4548,W,1.73,93.14,051213,,,A*5F
$GPRMC,215528.000,A,3138.3838,S,06040.4543,W,1.09,100.83,051213,,,A*63
$GPRMC,215529.000,A,3138.3838,S,06040.4542,W,0.33,100.83,051213,,,A*6B
$GPRMC,215530.000,A,3138.3838,S,06040.4545,W,1.46,277.38,051213,,,A*64
$GPRMC,215531.000,A,3138.3837,S,06040.4549,W,1.41,279.67,051213,,,A*65
$GPRMC,215532.000,A,3138.3837,S,06040.4550,W,1.17,105.37,051213,,,A*60
$GPRMC,215533.000,A,3138.3837,S,06040.4544,W,1.86,103.97,051213,,,A*60
$GPRMC,215534.000,A,3138.3837,S,06040.4538,W,2.11,102.83,051213,,,A*65
$GPRMC,215535.000,A,3138.3837,S,06040.4531,W,1.81,101.50,051213,,,A*6A
$GPRMC,215536.000,A,3138.3837,S,06040.4527,W,0.94,100.68,051213,,,A*61
$GPRMC,215537.000,A,3138.3837,S,06040.4527,W,0.95,262.97,051213,,,A*66
$GPRMC,215538.000,A,3138.3837,S,06040.4529,W,0.67,272.29,051213,,,A*6E
$GPRMC,215539.000,A,3138.3837,S,06040.4528,W,1.39,98.69,051213,,,A*56
$GPRMC,215540.000,A,3138.3837,S,06040.4522,W,1.94,98.03,051213,,,A*59
$GPRMC,215541.000,A,3138.3837,S,06040.4516,W,1.93,89.77,051213,,,A*5B
$GPRMC,215542.000,A,3138.3838,S,06040.4511,W,1.16,90.91,051213,,,A*5D
$GPRMC,215543.000,A,3138.3838,S,06040.4511,W,0.97,277.23,051213,,,A*66
$GPRMC,215544.000,A,3138.3837,S,06040.4514,W,0.91,288.54,051213,,,A*6D
$GPRMC,215545.000,A,3138.3838,S,06040.4513,W,0.99,109.08,051213,,,A*6F
$GPRMC,215546.000,A,3138.3838,S,06040.4509,W,1.50,106.66,051213,,,A*64
$GPRMC,215547.000,A,3138.3836,S,06040.4506,W,0.94,17.54,051213,,,A*5D
$GPRMC,215548.000,A,3138.3830,S,06040.4506,W,2.83,347.49,051213,,,A*6A
$GPRMC,215549.000,A,3138.3825,S,06040.4507,W,0.98,92.13,051213,,,A*52
$GPRMC,215550.000,A,3138.3824,S,06040.4508,W,1.00,177.46,051213,,,A*6E
$GPRMC,215551.000,A,3138.3827,S,06040.4508,W,0.94,177.32,051213,,,A*63
$GPRMC,215552.000,A,3138.3828,S,06040.4508,W,0.06,177.32,051213,,,A*64
$GPRMC,215553.000,A,3138.3825,S,06040.4508,W,1.61,7.30,051213,,,A*6C
$GPRMC,215554.000,A,3138.3820,S,06040.4507,W,1.95,4.20,051213,,,A*68
$GPRMC,215555.000,A,3138.3815,S,06040.4507,W,1.62,355.86,051213,,,A*6C
$GPRMC,215556.000,A,3138.3812,S,06040.4507,W,0.46,355.86,051213,,,A*6F
$GPRMC,215557.000,A,3138.3813,S,06040.4508,W,1.14,183.23,051213,,,A*60
$GPRMC,215558.000,A,3138.3816,S,06040.4509,W,1.10,185.23,051213,,,A*69
$GPRMC,215559.000,A,3138.3817,S,06040.4509,W,0.11,185.23,051213,,,A*69
$GPRMC,215600.000,A,3138.3816,S,06040.4509,W,1.11,9.25,051213,,,A*65
$GPRMC,215601.000,A,3138.3809,S,06040.4510,W,3.55,348.12,051213,,,A*62
$GPRMC,215602.000,A,3138.3802,S,06040.4511,W,0.70,52.47,051213,,,A*57
$GPRMC,215603.000,A,3138.3801,S,06040.4510,W,0.54,52.47,051213,,,A*52
$GPRMC,215604.000,A,3138.3801,S,06040.4510,W,0.86,184.36,051213,,,A*66
$GPRMC,215605.000,A,3138.3804,S,06040.4510,W,0.91,183.42,051213,,,A*60
$GPRMC,215606.000,A,3138.3806,S,06040.4510,W,0.70,192.72,051213,,,A*6D
$GPRMC,215607.000,A,3138.3805,S,06040.4510,W,0.99,11.31,051213,,,A*55
$GPRMC,215608.000,A,3138.3800,S,06040.4512,W,3.36,335.22,051213,,,A*6C
$GPRMC,215609.000,A,3138.3791,S,06040.4516,W,4.05,338.59,051213,,,A*68
$GPRMC,215610.000,A,3138.3785,S,06040.4517,W,0.97,98.99,051213,,,A*5E
$GPRMC,215611.000,A,3138.3787,S,06040.4517,W,1.57,163.94,051213,,,A*68
$GPRMC,215612.000,A,3138.3789,S,06040.4518,W,1.11,175.87,051213,,,A*6D
$GPRMC,215613.000,A,3138.3790,S,06040.4517,W,0.42,175.87,051213,,,A*6C
$GPRMC,215614.000,A,3138.3789,S,06040.4516,W,0.85,11.59,051213,,,A*59
$GPRMC,215615.000,A,3138.3785,S,06040.4516,W,1.49,10.77,051213,,,A*58
$GPRMC,215616.000,A,3138.3782,S,06040.4515,W,1.48,10.16,051213,,,A*59
$GPRMC,215617.000,A,3138.3781,S,06040.4515,W,0.48,10.16,051213,,,A*5A
$GPRMC,215618.000,A,3138.3782,S,06040.4514,W,1.10,186.29,051213,,,A*69
$GPRMC,215619.000,A,3138.3785,S,06040.4515,W,1.11,184.38,051213,,,A*6D
$GPRMC,215620.000,A,3138.3787,S,06040.4514,W,0.13,184.38,051213,,,A*67
$GPRMC,215621.000,A,3138.3786,S,06040.4514,W,0.91,0.00,051213,,,A*6B
$GPRMC,215622.000,A,3138.3783,S,06040.4515,W,1.51,356.62,051213,,,A*65
$GPRMC,215623.000,A,3138.3780,S,06040.4515,W,0.73,330.61,051213,,,A*65
$GPRMC,215624.000,A,3138.3779,S,06040.4517,W,0.45,330.61,051213,,,A*63
$GPRMC,215625.000,A,3138.3779,S,06040.4519,W,1.27,279.39,051213,,,A*68
$GPRMC,215626.000,A,3138.3779,S,06040.4524,W,1.61,276.20,051213,,,A*60
$GPRMC,215627.000,A,3138.3779,S,06040.4527,W,0.19,276.20,051213,,,A*6C
$GPRMC,215628.000,A,3138.3780,S,06040.4525,W,1.46,96.12,051213,,,A*51
$GPRMC,215629.000,A,3138.3780,S,06040.4521,W,0.76,96.92,051213,,,A*5E
$GPRMC,215630.000,A,3138.3781,S,06040.4521,W,1.11,273.81,051213,,,A*6C
$GPRMC,215631.000,A,3138.3781,S,06040.4526,W,1.74,270.76,051213,,,A*62
$GPRMC,215632.000,A,3138.3782,S,06040.4532,W,1.78,271.10,051213,,,A*6A
$GPRMC,215633.000,A,3138.3781,S,06040.4537,W,1.26,285.85,051213,,,A*61
$GPRMC,215634.000,A,3138.3782,S,06040.4538,W,0.35,285.85,051213,,,A*69
$GPRMC,215635.000,A,3138.3782,S,06040.4535,W,1.07,94.95,051213,,,A*56
$GPRMC,215636.000,A,3138.3783,S,06040.4532,W,1.00,95.50,051213,,,A*5C
$GPRMC,215637.000,A,3138.3783,S,06040.4531,W,0.46,95.50,051213,,,A*5D
$GPRMC,215638.000,A,3138.3784,S,06040.4535,W,1.55,272.30,051213,,,A*6F
$GPRMC,215639.000,A,3138.3784,S,06040.4540,W,1.62,272.91,051213,,,A*63
$GPRMC,215640.000,A,3138.3783,S,06040.4545,W,1.59,272.07,051213,,,A*68
$GPRMC,215641.000,A,3138.3784,S,06040.4548,W,0.31,272.07,051213,,,A*6C
$GPRMC,215642.000,A,3138.3784,S,06040.4547,W,0.98,104.10,051213,,,A*67
$GPRMC,215643.000,A,3138.3785,S,06040.4543,W,0.98,85.57,051213,,,A*58
$GPRMC,215644.000,A,3138.3785,S,06040.4543,W,0.53,85.57,051213,,,A*58
$GPRMC,215645.000,A,3138.3785,S,06040.4546,W,1.63,270.01,051213,,,A*65
$GPRMC,215646.000,A,3138.3785,S,06040.4552,W,1.81,273.09,051213,,,A*64
$GPRMC,215647.000,A,3138.3785,S,06040.4558,W,1.74,273.04,051213,,,A*68
$GPRMC,215648.000,A,3138.3785,S,06040.4562,W,0.61,291.21,051213,,,A*60
$GPRMC,215649.000,A,3138.3785,S,06040.4561,W,0.87,103.04,051213,,,A*65
$GPRMC,215650.000,A,3138.3785,S,06040.4560,W,0.27,103.04,051213,,,A*66
$GPRMC,215651.000,A,3138.3786,S,06040.4562,W,1.26,264.73,051213,,,A*64
$GPRMC,215652.000,A,3138.3785,S,06040.4567,W,2.08,266.03,051213,,,A*6B
$GPRMC,215653.000,A,3138.3785,S,06040.4573,W,1.42,264.62,051213,,,A*67
$GPRMC,215654.000,A,3138.3787,S,06040.4574,W,1.10,199.77,051213,,,A*67
$GPRMC,215655.000,A,3138.3790,S,06040.4574,W,1.08,197.17,051213,,,A*61
$GPRMC,215656.000,A,3138.3790,S,06040.4573,W,0.81,348.73,051213,,,A*67
$GPRMC,215657.000,A,3138.3788,S,06040.4573,W,0.43,348.73,051213,,,A*61
$GPRMC,215658.000,A,3138.3791,S,06040.4572,W,1.38,189.66,051213,,,A*61
$GPRMC,215659.000,A,3138.3796,S,06040.4572,W,2.27,188.45,051213,,,A*6A
$GPRMC,215700.000,A,3138.3802,S,06040.4571,W,2.46,187.21,051213,,,A*6C
$GPRMC,215701.000,A,3138.3807,S,06040.4571,W,1.45,186.06,051213,,,A*6C
$GPRMC,215702.000,A,3138.3810,S,06040.4570,W,0.34,186.06,051213,,,A*6F
$GPRMC,215703.000,A,3138.3809,S,06040.4570,W,0.78,357.91,051213,,,A*6E
$GPRMC,215704.000,A,3138.3811,S,06040.4568,W,0.36,357.91,051213,,,A*63
$GPRMC,215705.000,A,3138.3813,S,06040.4568,W,1.66,186.62,051213,,,A*66
$GPRMC,215706.000,A,3138.3818,S,06040.4569,W,1.66,186.60,051213,,,A*6D
$GPRMC,215707.000,A,3138.3822,S,06040.4569,W,1.01,180.27,051213,,,A*61
$GPRMC,215708.000,A,3138.3822,S,06040.4570,W,0.83,347.64,051213,,,A*63
$GPRMC,215709.000,A,3138.3819,S,06040.4569,W,1.69,0.37,051213,,,A*61
$GPRMC,215710.000,A,3138.3818,S,06040.4569,W,0.30,0.37,051213,,,A*65
$GPRMC,215711.000,A,3138.3821,S,06040.4569,W,1.51,183.11,051213,,,A*66
$GPRMC,215712.000,A,3138.3826,S,06040.4569,W,1.79,181.28,051213,,,A*60
$GPRMC,215713.000,A,3138.3831,S,06040.4569,W,1.56,179.81,051213,,,A*6E
$GPRMC,215714.000,A,3138.3834,S,06040.4569,W,0.79,184.91,051213,,,A*63
$GPRMC,215715.000,A,3138.3833,S,06040.4569,W,0.83,350.45,051213,,,A*62
$GPRMC,215716.000,A,3138.3831,S,06040.4568,W,1.28,13.98,051213,,,A*56
$GPRMC,215717.000,A,3138.3829,S,06040.4568,W,0.33,13.98,051213,,,A*55
$GPRMC,215718.000,A,3138.3830,S,06040.4568,W,1.12,179.31,051213,,,A*6E
$GPRMC,215719.000,A,3138.3834,S,06040.4567,W,1.61,179.27,051213,,,A*67
$GPRMC,215720.000,A,3138.3839,S,06040.4567,W,1.66,179.90,051213,,,A*6B
$GPRMC,215721.000,A,3138.3843,S,06040.4567,W,1.66,182.32,051213,,,A*6B
$GPRMC,215722.000,A,3138.3846,S,06040.4567,W,0.15,182.32,051213,,,A*68
$GPRMC,215723.000,A,3138.3846,S,06040.4567,W,0.21,182.32,051213,,,A*6E
$GPRMC,215724.000,A,3138.3845,S,06040.4568,W,0.16,183.02,051213,,,A*63
$GPRMC,215725.000,A,3138.3844,S,06040.4568,W,0.42,183.15,051213,,,A*64
$GPRMC,215726.000,A,3138.3843,S,06040.4569,W,1.04,342.52,051213,,,A*6E
$GPRMC,215727.000,A,3138.3841,S,06040.4569,W,1.01,99.71,051213,,,A*5C
$GPRMC,215728.000,A,3138.3840,S,06040.4568,W,0.44,99.71,051213,,,A*53
$GPRMC,215729.000,A,3138.3838,S,06040.4569,W,0.42,99.71,051213,,,A*5A
$GPRMC,215730.000,A,3138.3837,S,06040.4569,W,0.26,99.71,051213,,,A*5F
$GPRMC,215731.000,A,3138.3837,S,06040.4569,W,0.01,99.71,051213,,,A*5B
$GPRMC,215732.000,A,3138.3837,S,06040.4569,W,0.03,99.71,051213,,,A*5A
$GPRMC,215733.000,A,3138.3837,S,06040.4569,W,0.03,99.71,051213,,,A*5B
$GPRMC,215734.000,A,3138.3837,S,06040.4568,W,0.72,99.71,051213,,,A*5B
$GPRMC,215735.000,A,3138.3837,S,06040.4564,W,2.24,91.90,051213,,,A*50
$GPRMC,215736.000,A,3138.3837,S,06040.4557,W,1.89,92.52,051213,,,A*5A
$GPRMC,215737.000,A,3138.3837,S,06040.4554,W,0.62,93.05,051213,,,A*5F
$GPRMC,215738.000,A,3138.3837,S,06040.4555,W,1.04,273.62,051213,,,A*6D
$GPRMC,215739.000,A,3138.3836,S,06040.4558,W,0.79,276.06,051213,,,A*6C
$GPRMC,215740.000,A,3138.3836,S,06040.4557,W,1.15,94.63,051213,,,A*5B
$GPRMC,215741.000,A,3138.3835,S,06040.4552,W,1.65,93.63,051213,,,A*5C
$GPRMC,215742.000,A,3138.3835,S,06040.4546,W,1.66,95.46,051213,,,A*58
$GPRMC,215743.000,A,3138.3836,S,06040.4541,W,1.38,98.82,051213,,,A*53
$GPRMC,215744.000,A,3138.3836,S,06040.4540,W,0.34,98.82,051213,,,A*58
$GPRMC,215745.000,A,3138.3836,S,06040.4542,W,1.26,288.97,051213,,,A*6E
$GPRMC,215746.000,A,3138.3835,S,06040.4542,W,0.81,94.14,051213,,,A*56
$GPRMC,215747.000,A,3138.3836,S,06040.4537,W,1.90,96.53,051213,,,A*56
$GPRMC,215748.000,A,3138.3836,S,06040.4530,W,2.10,97.30,051213,,,A*51
$GPRMC,215749.000,A,3138.3836,S,06040.4524,W,1.75,90.65,051213,,,A*52
$GPRMC,215750.000,A,3138.3836,S,06040.4519,W,0.89,89.22,051213,,,A*5D
$GPRMC,215751.000,A,3138.3836,S,06040.4519,W,0.96,264.76,051213,,,A*62
$GPRMC,215752.000,A,3138.3835,S,06040.4522,W,0.97,265.81,051213,,,A*62
$GPRMC,215753.000,A,3138.3835,S,06040.4522,W,0.65,86.67,051213,,,A*59
$GPRMC,215754.000,A,3138.3835,S,06040.4517,W,1.82,93.94,051213,,,A*58
$GPRMC,215755.000,A,3138.3835,S,06040.4511,W,1.90,98.48,051213,,,A*56
$GPRMC,215756.000,A,3138.3836,S,06040.4505,W,1.59,95.39,051213,,,A*5D
$GPRMC,215757.000,A,3138.3835,S,06040.4502,W,0.51,95.39,051213,,,A*51
$GPRMC,215758.000,A,3138.3834,S,06040.4501,W,0.81,345.61,051213,,,A*62
$GPRMC,215759.000,A,3138.3832,S,06040.4501,W,0.64,48.21,051213,,,A*54
$GPRMC,215800.000,A,3138.3831,S,06040.4501,W,0.16,48.21,051213,,,A*51
$GPRMC,215801.000,A,3138.3832,S,06040.4502,W,1.34,187.23,051213,,,A*61
$GPRMC,215802.000,A,3138.3835,S,06040.4502,W,0.63,185.53,051213,,,A*63
$GPRMC,215803.000,A,3138.3833,S,06040.4503,W,1.62,0.95,051213,,,A*63
$GPRMC,215804.000,A,3138.3828,S,06040.4503,W,2.08,2.51,051213,,,A*6B
$GPRMC,215805.000,A,3138.3822,S,06040.4503,W,2.04,359.84,051213,,,A*69
$GPRMC,215806.000,A,3138.3816,S,06040.4503,W,1.99,359.82,051213,,,A*6C
$GPRMC,215807.000,A,3138.3813,S,06040.4503,W,0.31,359.82,051213,,,A*6B
$GPRMC,215808.000,A,3138.3814,S,06040.4504,W,1.09,186.36,051213,,,A*61
$GPRMC,215809.000,A,3138.3816,S,06040.4504,W,0.72,185.30,051213,,,A*6A
$GPRMC,215810.000,A,3138.3814,S,06040.4504,W,1.29,7.20,051213,,,A*65
$GPRMC,215811.000,A,3138.3810,S,06040.4504,W,1.83,4.94,051213,,,A*6C
$GPRMC,215812.000,A,3138.3804,S,06040.4504,W,2.17,359.50,051213,,,A*67
$GPRMC,215813.000,A,3138.3798,S,06040.4504,W,1.87,7.17,051213,,,A*6D
$GPRMC,215814.000,A,3138.3793,S,06040.4504,W,1.80,357.83,051213,,,A*6D
$GPRMC,215815.000,A,3138.3792,S,06040.4505,W,3.46,162.83,051213,,,A*60
$GPRMC,215816.000,A,3138.3798,S,06040.4504,W,3.00,165.74,051213,,,A*65
$GPRMC,215817.000,A,3138.3801,S,06040.4504,W,0.08,165.74,051213,,,A*60
$GPRMC,215818.000,A,3138.3802,S,06040.4505,W,0.48,165.74,051213,,,A*69
$GPRMC,215819.000,A,3138.3796,S,06040.4506,W,1.15,6.99,051213,,,A*67
$GPRMC,215820.000,A,3138.3792,S,06040.4508,W,1.19,340.04,051213,,,A*6E
$GPRMC,215821.000,A,3138.3787,S,06040.4510,W,1.23,340.78,051213,,,A*60
$GPRMC,215822.000,A,3138.3788,S,06040.4516,W,1.64,333.60,051213,,,A*64
$GPRMC,215823.000,A,3138.3791,S,06040.4517,W,3.37,161.95,051213,,,A*67
$GPRMC,215824.000,A,3138.3794,S,06040.4514,W,1.18,102.76,051213,,,A*61
$GPRMC,215825.000,A,3138.3794,S,06040.4512,W,0.41,102.76,051213,,,A*6B
$GPRMC,215826.000,A,3138.3793,S,06040.4514,W,1.61,277.13,051213,,,A*68
$GPRMC,215827.000,A,3138.3791,S,06040.4521,W,2.21,275.64,051213,,,A*68
$GPRMC,215828.000,A,3138.3791,S,06040.4529,W,2.13,273.71,051213,,,A*6C
$GPRMC,215829.000,A,3138.3791,S,06040.4536,W,1.77,271.71,051213,,,A*60
$GPRMC,215830.000,A,3138.3791,S,06040.4539,W,0.03,271.71,051213,,,A*65
$GPRMC,215831.000,A,3138.3790,S,06040.4537,W,1.14,90.24,051213,,,A*51
$GPRMC,215832.000,A,3138.3790,S,06040.4534,W,0.58,90.24,051213,,,A*58
$GPRMC,215833.000,A,3138.3790,S,06040.4536,W,1.40,265.14,051213,,,A*68
$GPRMC,215834.000,A,3138.3789,S,06040.4542,W,1.96,266.02,051213,,,A*6B
$GPRMC,215835.000,A,3138.3789,S,06040.4549,W,2.01,266.69,051213,,,A*61
$GPRMC,215836.000,A,3138.3788,S,06040.4555,W,1.58,267.46,051213,,,A*6D
$GPRMC,215837.000,A,3138.3787,S,06040.4557,W,0.34,267.46,051213,,,A*6A
$GPRMC,215838.000,A,3138.3786,S,06040.4556,W,0.42,267.46,051213,,,A*64
$GPRMC,215839.000,A,3138.3786,S,06040.4558,W,0.74,283.08,051213,,,A*6E
$GPRMC,215840.000,A,3138.3785,S,06040.4562,W,1.91,282.09,051213,,,A*60
$GPRMC,215841.000,A,3138.3785,S,06040.4569,W,1.97,281.18,051213,,,A*6F
$GPRMC,215842.000,A,3138.3784,S,06040.4575,W,1.55,271.21,051213,,,A*6B
$GPRMC,215843.000,A,3138.3784,S,06040.4576,W,0.57,271.21,051213,,,A*6A
$GPRMC,215844.000,A,3138.3785,S,06040.4574,W,1.24,105.75,051213,,,A*6A
$GPRMC,215845.000,A,3138.3785,S,06040.4572,W,0.24,105.75,051213,,,A*6C
$GPRMC,215846.000,A,3138.3784,S,06040.4575,W,1.67,276.08,051213,,,A*62
$GPRMC,215847.000,A,3138.3784,S,06040.4579,W,0.97,276.71,051213,,,A*6F
$GPRMC,215848.000,A,3138.3784,S,06040.4581,W,0.43,276.71,051213,,,A*6E
$GPRMC,215849.000,A,3138.3786,S,06040.4581,W,0.20,276.71,051213,,,A*68
$GPRMC,215850.000,A,3138.3789,S,06040.4581,W,0.58,276.71,051213,,,A*60
$GPRMC,215851.000,A,3138.3789,S,06040.4580,W,1.08,10.10,051213,,,A*51
$GPRMC,215852.000,A,3138.3786,S,06040.4580,W,1.10,355.38,051213,,,A*6C
$GPRMC,215853.000,A,3138.3784,S,06040.4579,W,0.30,355.38,051213,,,A*6A
$GPRMC,215854.000,A,3138.3787,S,06040.4577,W,1.58,193.08,051213,,,A*64
$GPRMC,215855.000,A,3138.3792,S,06040.4578,W,1.64,193.70,051213,,,A*6E
$GPRMC,215856.000,A,3138.3795,S,06040.4578,W,0.19,193.70,051213,,,A*61
$GPRMC,215857.000,A,3138.3797,S,06040.4577,W,1.49,193.66,051213,,,A*6E
$GPRMC,215858.000,A,3138.3798,S,06040.4577,W,0.40,193.66,051213,,,A*66
$GPRMC,215859.000,A,3138.3795,S,06040.4577,W,1.07,6.57,051213,,,A*67
$GPRMC,215900.000,A,3138.3794,S,06040.4578,W,1.25,258.24,051213,,,A*69
$GPRMC,215901.000,A,3138.3796,S,06040.4582,W,1.76,255.48,051213,,,A*6E
$GPRMC,215902.000,A,3138.3801,S,06040.4583,W,1.50,192.30,051213,,,A*6E
$GPRMC,215903.000,A,3138.3805,S,06040.4582,W,0.98,190.33,051213,,,A*6E
$GPRMC,215904.000,A,3138.3808,S,06040.4582,W,0.92,178.69,051213,,,A*67
$GPRMC,215905.000,A,3138.3808,S,06040.4581,W,1.20,352.98,051213,,,A*69
$GPRMC,215906.000,A,3138.3805,S,06040.4581,W,1.02,1.30,051213,,,A*60
$GPRMC,215907.000,A,3138.3805,S,06040.4580,W,0.42,1.30,051213,,,A*65
$GPRMC,215908.000,A,3138.3808,S,06040.4579,W,1.45,178.78,051213,,,A*64
$GPRMC,215909.000,A,3138.3812,S,06040.4579,W,1.64,180.13,051213,,,A*67
$GPRMC,215910.000,A,3138.3816,S,06040.4579,W,1.20,194.08,051213,,,A*64
$GPRMC,215911.000,A,3138.3818,S,06040.4579,W,0.18,194.08,051213,,,A*61
$GPRMC,215912.000,A,3138.3817,S,06040.4578,W,0.78,4.39,051213,,,A*60
$GPRMC,215913.000,A,3138.3815,S,06040.4578,W,0.80,2.64,051213,,,A*6A
$GPRMC,215914.000,A,3138.3814,S,06040.4578,W,0.59,349.43,051213,,,A*61
$GPRMC,215915.000,A,3138.3814,S,06040.4577,W,0.53,349.43,051213,,,A*65
$GPRMC,215916.000,A,3138.3817,S,06040.4577,W,1.57,179.10,051213,,,A*67
$GPRMC,215917.000,A,3138.3822,S,06040.4577,W,1.79,177.10,051213,,,A*62
$GPRMC,215918.000,A,3138.3825,S,06040.4577,W,0.82,178.06,051213,,,A*67
$GPRMC,215919.000,A,3138.3824,S,06040.4576,W,0.90,21.05,051213,,,A*5B
$GPRMC,215920.000,A,3138.3822,S,06040.4575,W,0.92,351.86,051213,,,A*69
$GPRMC,215921.000,A,3138.3822,S,06040.4576,W,0.66,196.39,051213,,,A*6D
$GPRMC,215922.000,A,3138.3825,S,06040.4575,W,1.40,174.22,051213,,,A*69
$GPRMC,215923.000,A,3138.3827,S,06040.4575,W,0.70,275.22,051213,,,A*6A
$GPRMC,215924.000,A,3138.3827,S,06040.4576,W,0.50,275.22,051213,,,A*6C
$GPRMC,215925.000,A,3138.3826,S,06040.4574,W,0.78,63.03,051213,,,A*52
$GPRMC,215926.000,A,3138.3826,S,06040.4573,W,0.82,164.86,051213,,,A*68
$GPRMC,215927.000,A,3138.3828,S,06040.4573,W,0.17,164.86,051213,,,A*6B
$GPRMC,215928.000,A,3138.3831,S,06040.4574,W,0.12,164.86,051213,,,A*6E
$GPRMC,215929.000,A,3138.3833,S,06040.4573,W,0.07,164.86,051213,,,A*6E
$GPRMC,215930.000,A,3138.3834,S,06040.4574,W,0.04,164.86,051213,,,A*65
$GPRMC,215931.000,A,3138.3834,S,06040.4573,W,0.06,164.86,051213,,,A*61
$GPRMC,215932.000,A,3138.3834,S,06040.4573,W,0.70,100.39,051213,,,A*65
$GPRMC,215933.000,A,3138.3834,S,06040.4569,W,2.01,90.54,051213,,,A*58
$GPRMC,215934.000,A,3138.3835,S,06040.4563,W,1.51,88.45,051213,,,A*5B
$GPRMC,215935.000,A,3138.3835,S,06040.4561,W,0.66,264.96,051213,,,A*63
$GPRMC,215936.000,A,3138.3834,S,06040.4564,W,1.25,281.41,051213,,,A*63
$GPRMC,215937.000,A,3138.3834,S,06040.4567,W,0.51,281.41,051213,,,A*63
$GPRMC,215938.000,A,3138.3834,S,06040.4566,W,0.89,83.46,051213,,,A*5F
$GPRMC,215939.000,A,3138.3833,S,06040.4561,W,1.98,84.42,051213,,,A*5C
$GPRMC,215940.000,A,3138.3833,S,06040.4555,W,2.00,85.70,051213,,,A*57
$GPRMC,215941.000,A,3138.3832,S,06040.4548,W,1.68,87.37,051213,,,A*57
$GPRMC,215942.000,A,3138.3832,S,06040.4542,W,0.99,88.01,051213,,,A*5B
$GPRMC,215943.000,A,3138.3832,S,06040.4542,W,0.94,273.90,051213,,,A*69
$GPRMC,215944.000,A,3138.3832,S,06040.4546,W,1.16,272.73,051213,,,A*6D
$GPRMC,215945.000,A,3138.3831,S,06040.4549,W,0.88,272.62,051213,,,A*66
$GPRMC,215946.000,A,3138.3832,S,06040.4549,W,0.93,95.79,051213,,,A*5D
$GPRMC,215947.000,A,3138.3832,S,06040.4545,W,1.82,95.14,051213,,,A*5A
$GPRMC,215948.000,A,3138.3833,S,06040.4539,W,1.76,93.90,051213,,,A*5E
$GPRMC,215949.000,A,3138.3834,S,06040.4534,W,1.44,94.54,051213,,,A*5B
$GPRMC,215950.000,A,3138.3835,S,06040.4530,W,0.89,84.10,051213,,,A*57
$GPRMC,215951.000,A,3138.3836,S,06040.4529,W,1.12,271.55,051213,,,A*67
$GPRMC,215952.000,A,3138.3836,S,06040.4532,W,1.14,272.88,051213,,,A*6B
$GPRMC,215953.000,A,3138.3836,S,06040.4534,W,0.37,272.88,051213,,,A*6C
$GPRMC,215954.000,A,3138.3837,S,06040.4532,W,2.04,121.81,051213,,,A*62
$GPRMC,215955.000,A,3138.3839,S,06040.4526,W,2.05,120.32,051213,,,A*60
$GPRMC,215956.000,A,3138.3840,S,06040.4520,W,1.76,99.52,051213,,,A*59
$GPRMC,215957.000,A,3138.3839,S,06040.4515,W,1.35,85.25,051213,,,A*5A
$GPRMC,215958.000,A,3138.3840,S,06040.4513,W,0.24,85.25,051213,,,A*5C
$GPRMC,215959.000,A,3138.3840,S,06040.4515,W,1.24,263.05,051213,,,A*62
$GPRMC,220000.000,A,3138.3841,S,06040.4519,W,1.20,282.49,051213,,,A*6F
$GPRMC,220001.000,A,3138.3840,S,06040.4521,W,0.40,282.49,051213,,,A*63
$GPRMC,220002.000,A,3138.3840,S,06040.4519,W,1.13,92.97,051213,,,A*5C
$GPRMC,220003.000,A,3138.3840,S,06040.4514,W,1.86,91.36,051213,,,A*54
$GPRMC,220004.000,A,3138.3840,S,06040.4509,W,1.86,89.12,051213,,,A*50
$GPRMC,220005.000,A,3138.3840,S,06040.4504,W,0.84,103.05,051213,,,A*6A
$GPRMC,220006.000,A,3138.3840,S,06040.4504,W,0.89,291.29,051213,,,A*62
$GPRMC,220007.000,A,3138.3839,S,06040.4507,W,1.26,267.08,051213,,,A*60
$GPRMC,220008.000,A,3138.3839,S,06040.4509,W,0.68,292.92,051213,,,A*63
$GPRMC,220009.000,A,3138.3838,S,06040.4508,W,1.62,98.15,051213,,,A*5E
$GPRMC,220010.000,A,3138.3838,S,06040.4503,W,0.99,61.02,051213,,,A*58
$GPRMC,220011.000,A,3138.3835,S,06040.4501,W,1.55,358.06,051213,,,A*6A
$GPRMC,220012.000,A,3138.3831,S,06040.4501,W,1.20,14.61,051213,,,A*55
$GPRMC,220013.000,A,3138.3827,S,06040.4500,W,1.42,13.28,051213,,,A*5C
$GPRMC,220014.000,A,3138.3827,S,06040.4501,W,0.56,13.28,051213,,,A*5E
$GPRMC,220015.000,A,3138.3830,S,06040.4500,W,1.36,179.92,051213,,,A*63
$GPRMC,220016.000,A,3138.3833,S,06040.4500,W,1.32,181.80,051213,,,A*63
$GPRMC,220017.000,A,3138.3834,S,06040.4501,W,0.83,4.62,051213,,,A*6F
$GPRMC,220018.000,A,3138.3829,S,06040.4501,W,1.99,2.28,051213,,,A*6E
$GPRMC,220019.000,A,3138.3823,S,06040.4501,W,2.02,3.48,051213,,,A*63
$GPRMC,220020.000,A,3138.3816,S,06040.4503,W,2.00,1.35,051213,,,A*67
$GPRMC,220021.000,A,3138.3811,S,06040.4504,W,0.87,13.18,051213,,,A*57
$GPRMC,220022.000,A,3138.3809,S,06040.4506,W,1.05,193.71,051213,,,A*62
$GPRMC,220023.000,A,3138.3813,S,06040.4507,W,1.11,192.30,051213,,,A*68
$GPRMC,220024.000,A,3138.3813,S,06040.4508,W,1.47,354.97,051213,,,A*66
$GPRMC,220025.000,A,3138.3807,S,06040.4508,W,2.00,355.47,051213,,,A*6E
$GPRMC,220026.000,A,3138.3800,S,06040.4509,W,2.34,8.12,051213,,,A*67
$GPRMC,220027.000,A,3138.3795,S,06040.4508,W,1.03,13.76,051213,,,A*5B
$GPRMC,220028.000,A,3138.3797,S,06040.4510,W,0.64,179.21,051213,,,A*60
$GPRMC,220029.000,A,3138.3800,S,06040.4510,W,1.40,178.60,051213,,,A*63
$GPRMC,220030.000,A,3138.3802,S,06040.4510,W,0.82,194.50,051213,,,A*67
$GPRMC,220031.000,A,3138.3800,S,06040.4509,W,1.66,7.72,051213,,,A*6C
$GPRMC,220032.000,A,3138.3792,S,06040.4512,W,4.46,339.28,051213,,,A*67
$GPRMC,220033.000,A,3138.3784,S,06040.4514,W,1.34,10.11,051213,,,A*55
$GPRMC,220034.000,A,3138.3784,S,06040.4514,W,0.18,10.11,051213,,,A*5D
$GPRMC,220035.000,A,3138.3787,S,06040.4513,W,1.09,163.22,051213,,,A*6C
$GPRMC,220036.000,A,3138.3790,S,06040.4513,W,1.11,164.68,051213,,,A*69
$GPRMC,220037.000,A,3138.3789,S,06040.4512,W,0.11,164.68,051213,,,A*60
$GPRMC,220038.000,A,3138.3787,S,06040.4512,W,2.14,359.63,051213,,,A*61
$GPRMC,220039.000,A,3138.3782,S,06040.4512,W,1.53,351.55,051213,,,A*68
$GPRMC,220040.000,A,3138.3781,S,06040.4515,W,1.46,272.90,051213,,,A*6F
$GPRMC,220041.000,A,3138.3781,S,06040.4520,W,1.82,273.62,051213,,,A*6C
$GPRMC,220042.000,A,3138.3781,S,06040.4523,W,1.30,167.86,051213,,,A*69
$GPRMC,220043.000,A,3138.3780,S,06040.4520,W,1.09,98.45,051213,,,A*5E
$GPRMC,220044.000,A,3138.3781,S,06040.4517,W,0.66,89.35,051213,,,A*53
$GPRMC,220045.000,A,3138.3782,S,06040.4520,W,1.24,269.62,051213,,,A*6C
$GPRMC,220046.000,A,3138.3782,S,06040.4526,W,2.21,270.51,051213,,,A*67
$GPRMC,220047.000,A,3138.3782,S,06040.4532,W,1.87,272.11,051213,,,A*6A
$GPRMC,220048.000,A,3138.3782,S,06040.4538,W,1.63,270.63,051213,,,A*62
$GPRMC,220049.000,A,3138.3783,S,06040.4541,W,0.48,270.63,051213,,,A*64
$GPRMC,220050.000,A,3138.3783,S,06040.4540,W,1.22,92.23,051213,,,A*5A
$GPRMC,220051.000,A,3138.3784,S,06040.4535,W,1.66,92.89,051213,,,A*5E
$GPRMC,220052.000,A,3138.3785,S,06040.4533,W,0.37,92.89,051213,,,A*5F
$GPRMC,220053.000,A,3138.3785,S,06040.4536,W,1.42,273.76,051213,,,A*65
$GPRMC,220054.000,A,3138.3785,S,06040.4542,W,1.49,273.01,051213,,,A*6A
$GPRMC,220055.000,A,3138.3785,S,06040.4549,W,1.49,274.73,051213,,,A*62
$GPRMC,220056.000,A,3138.3785,S,06040.4553,W,2.11,273.71,051213,,,A*61
$GPRMC,220057.000,A,3138.3787,S,06040.4554,W,0.89,272.13,051213,,,A*63
$GPRMC,220058.000,A,3138.3788,S,06040.4555,W,0.88,97.37,051213,,,A*5C
$GPRMC,220059.000,A,3138.3789,S,06040.4552,W,1.04,78.25,051213,,,A*5C
$GPRMC,220100.000,A,3138.3790,S,06040.4552,W,0.54,78.25,051213,,,A*5D
$GPRMC,220101.000,A,3138.3792,S,06040.4554,W,1.16,276.87,051213,,,A*6B
$GPRMC,220102.000,A,3138.3792,S,06040.4560,W,1.81,275.39,051213,,,A*67
$GPRMC,220103.000,A,3138.3792,S,06040.4568,W,1.81,271.40,051213,,,A*64
$GPRMC,220104.000,A,3138.3791,S,06040.4576,W,2.16,272.62,051213,,,A*61
$GPRMC,220105.000,A,3138.3791,S,06040.4579,W,0.40,272.62,051213,,,A*6E
$GPRMC,220106.000,A,3138.3791,S,06040.4580,W,0.70,66.60,051213,,,A*5D
$GPRMC,220107.000,A,3138.3790,S,06040.4580,W,0.48,66.60,051213,,,A*56
$GPRMC,220108.000,A,3138.3791,S,06040.4584,W,1.56,270.77,051213,,,A*61
$GPRMC,220109.000,A,3138.3791,S,06040.4587,W,1.10,269.27,051213,,,A*6C
$GPRMC,220110.000,A,3138.3791,S,06040.4589,W,0.24,269.27,051213,,,A*6C
$GPRMC,220111.000,A,3138.3792,S,06040.4588,W,0.55,269.27,051213,,,A*69
$GPRMC,220112.000,A,3138.3796,S,06040.4587,W,1.35,197.65,051213,,,A*62
$GPRMC,220113.000,A,3138.3799,S,06040.4586,W,0.56,197.65,051213,,,A*69
$GPRMC,220114.000,A,3138.3798,S,06040.4585,W,0.71,18.52,051213,,,A*5B
$GPRMC,220115.000,A,3138.3795,S,06040.4584,W,1.14,359.75,051213,,,A*67
$GPRMC,220116.000,A,3138.3792,S,06040.4582,W,1.08,15.65,051213,,,A*52
$GPRMC,220117.000,A,3138.3793,S,06040.4582,W,1.42,198.01,051213,,,A*6A
$GPRMC,220118.000,A,3138.3797,S,06040.4581,W,1.81,196.51,051213,,,A*66
$GPRMC,220119.000,A,3138.3802,S,06040.4582,W,1.88,194.96,051213,,,A*67
$GPRMC,220120.000,A,3138.3807,S,06040.4582,W,1.83,193.75,051213,,,A*69
$GPRMC,220121.000,A,3138.3810,S,06040.4582,W,0.39,193.75,051213,,,A*6E
$GPRMC,220122.000,A,3138.3808,S,06040.4581,W,0.97,23.67,051213,,,A*5A
$GPRMC,220123.000,A,3138.3805,S,06040.4580,W,1.22,22.40,051213,,,A*5C
$GPRMC,220124.000,A,3138.3802,S,06040.4579,W,0.74,4.96,051213,,,A*67
$GPRMC,220125.000,A,3138.3803,S,06040.4579,W,1.35,193.88,051213,,,A*63
$GPRMC,220126.000,A,3138.3808,S,06040.4579,W,1.82,180.51,051213,,,A*61
$GPRMC,220127.000,A,3138.3812,S,06040.4579,W,1.78,182.22,051213,,,A*68
$GPRMC,220128.000,A,3138.3816,S,06040.4579,W,1.33,180.92,051213,,,A*65
$GPRMC,220129.000,A,3138.3818,S,06040.4579,W,0.02,180.92,051213,,,A*69
$GPRMC,220130.000,A,3138.3817,S,06040.4579,W,0.95,7.01,051213,,,A*64
$GPRMC,220131.000,A,3138.3813,S,06040.4579,W,1.21,358.33,051213,,,A*67
$GPRMC,220132.000,A,3138.3811,S,06040.4578,W,0.76,358.96,051213,,,A*6B
$GPRMC,220133.000,A,3138.3811,S,06040.4578,W,1.41,188.70,051213,,,A*68
$GPRMC,220134.000,A,3138.3816,S,06040.4578,W,1.82,187.50,051213,,,A*6A
$GPRMC,220135.000,A,3138.3820,S,06040.4578,W,1.64,186.85,051213,,,A*6F
$GPRMC,220136.000,A,3138.3824,S,06040.4577,W,1.35,185.33,051213,,,A*6D
$GPRMC,220137.000,A,3138.3825,S,06040.4577,W,0.21,185.33,051213,,,A*69
$GPRMC,220138.000,A,3138.3823,S,06040.4577,W,1.06,357.58,051213,,,A*64
$GPRMC,220139.000,A,3138.3820,S,06040.4577,W,1.35,357.77,051213,,,A*6B
$GPRMC,220140.000,A,3138.3821,S,06040.4576,W,1.37,186.33,051213,,,A*69
$GPRMC,220141.000,A,3138.3824,S,06040.4578,W,0.99,224.97,051213,,,A*63
$GPRMC,220142.000,A,3138.3828,S,06040.4576,W,1.90,219.71,051213,,,A*6C
$GPRMC,220143.000,A,3138.3835,S,06040.4575,W,3.52,214.82,051213,,,A*6F
$GPRMC,220144.000,A,3138.3840,S,06040.4574,W,1.65,211.15,051213,,,A*66
$GPRMC,220145.000,A,3138.3840,S,06040.4574,W,0.07,211.15,051213,,,A*62
$GPRMC,220146.000,A,3138.3845,S,06040.4574,W,0.11,211.15,051213,,,A*63
$GPRMC,220147.000,A,3138.3846,S,06040.4575,W,0.12,211.15,051213,,,A*63
$GPRMC,220148.000,A,3138.3846,S,06040.4576,W,0.08,211.15,051213,,,A*64
$GPRMC,220149.000,A,3138.3846,S,06040.4576,W,0.03,211.15,051213,,,A*6E
