$GPRMC,182204.778,A,3138.4051,S,06040.3494,W,0.07,0.00,281013,,,A*6B
0.02789,-0.99270,0.02774
$GPRMC,182205.778,A,3138.3893,S,06040.3373,W,0.12,0.00,281013,,,A*61
0.02351,-0.98979,0.03017
$GPRMC,182206.778,A,3138.3888,S,06040.3365,W,0.05,0.00,281013,,,A*69
0.02011,-0.98881,0.02725
$GPRMC,182207.778,A,3138.3975,S,06040.3449,W,0.05,0.00,281013,,,A*62
0.02351,-0.98687,0.02530
$GPRMC,182209.000,A,3138.3967,S,06040.3441,W,0.14,0.00,281013,,,A*6F
0.01962,-0.98784,0.03212
$GPRMC,182210.000,A,3138.3984,S,06040.3444,W,0.27,0.00,281013,,,A*6F
0.02595,-0.98979,0.03455
$GPRMC,182211.000,A,3138.3991,S,06040.3442,W,0.12,0.00,281013,,,A*6A
0.01622,-0.99173,0.02919
$GPRMC,182212.000,A,3138.3997,S,06040.3440,W,0.13,0.00,281013,,,A*6C
0.02011,-0.99270,0.03017
$GPRMC,182213.000,A,3138.3994,S,06040.3435,W,0.16,0.00,281013,,,A*69
0.02448,-0.98493,0.02140
$GPRMC,182214.000,A,3138.3996,S,06040.3435,W,0.00,0.00,281013,,,A*6B
0.01817,-0.98881,0.03163
$GPRMC,182215.000,A,3138.4006,S,06040.3437,W,0.11,0.00,281013,,,A*6F
0.02497,-0.98590,0.02043
$GPRMC,182216.000,A,3138.4022,S,06040.3446,W,0.25,0.00,281013,,,A*6B
0.02351,-0.98590,0.03212
$GPRMC,182217.000,A,3138.4035,S,06040.3453,W,0.18,0.00,281013,,,A*66
0.02108,-0.98201,0.02627
$GPRMC,182218.000,A,3138.4053,S,06040.3462,W,0.14,0.00,281013,,,A*67
0.01233,-0.98978,0.03650
$GPRMC,182219.000,A,3138.4064,S,06040.3467,W,0.30,0.00,281013,,,A*61
0.02351,-0.98298,0.02140
$GPRMC,182220.000,A,3138.4074,S,06040.3470,W,0.46,0.00,281013,,,A*6D
0.02303,-0.98396,0.03017
$GPRMC,182221.000,A,3138.4077,S,06040.3467,W,0.56,0.00,281013,,,A*68
0.02886,-0.99270,0.02822
$GPRMC,182222.000,A,3138.4084,S,06040.3468,W,0.55,0.00,281013,,,A*6B
0.02351,-0.98396,0.02335
$GPRMC,182223.000,A,3138.4094,S,06040.3471,W,0.53,0.00,281013,,,A*65
0.01914,-0.99076,0.03114
$GPRMC,182224.000,A,3138.4102,S,06040.3471,W,0.65,154.45,281013,,,A*68
0.02303,-0.98201,0.02822
$GPRMC,182225.000,A,3138.4112,S,06040.3474,W,0.74,155.06,281013,,,A*6B
0.03518,-0.98202,0.02140
$GPRMC,182226.000,A,3138.4117,S,06040.3475,W,0.78,158.25,281013,,,A*6C
0.02692,-0.98881,0.02530
$GPRMC,182227.000,A,3138.4123,S,06040.3477,W,0.75,174.88,281013,,,A*6C
0.02108,-0.99173,0.03212
$GPRMC,182228.000,A,3138.4129,S,06040.3478,W,0.76,175.98,281013,,,A*65
0.02351,-0.99270,0.02822
$GPRMC,182229.000,A,3138.4133,S,06040.3478,W,0.69,167.70,281013,,,A*64
0.02254,-0.99076,0.02432
$GPRMC,182230.000,A,3138.4141,S,06040.3480,W,0.76,166.70,281013,,,A*61
0.02789,-0.98784,0.02335
$GPRMC,182231.000,A,3138.4147,S,06040.3482,W,0.86,168.99,281013,,,A*62
0.02789,-0.98202,0.03406
$GPRMC,182232.000,A,3138.4149,S,06040.3482,W,0.88,163.16,281013,,,A*6D
0.02935,-0.98201,0.02432
$GPRMC,182233.000,A,3138.4148,S,06040.3480,W,0.99,164.94,281013,,,A*62
0.01817,-0.99464,0.03747
$GPRMC,182234.000,A,3138.4138,S,06040.3471,W,0.94,170.86,281013,,,A*67
0.01914,-0.99173,0.03845
$GPRMC,182235.000,A,3138.4141,S,06040.3472,W,0.94,176.07,281013,,,A*64
0.02692,-0.99367,0.03163
$GPRMC,182236.000,A,3138.4138,S,06040.3471,W,0.85,178.41,281013,,,A*66
0.01962,-0.98493,0.02724
$GPRMC,182237.000,A,3138.4135,S,06040.3467,W,0.77,167.50,281013,,,A*6E
0.02692,-0.98784,0.03017
$GPRMC,182238.000,A,3138.4114,S,06040.3453,W,0.72,166.42,281013,,,A*62
0.02449,-0.99367,0.03650
$GPRMC,182239.000,A,3138.4097,S,06040.3443,W,0.67,154.43,281013,,,A*6C
0.02254,-0.99270,0.03650
$GPRMC,182240.000,A,3138.4082,S,06040.3435,W,0.30,154.43,281013,,,A*65
0.02352,-0.98979,0.03650
$GPRMC,182241.000,A,3138.4068,S,06040.3431,W,0.25,154.43,281013,,,A*60
0.01719,-0.98395,0.02432
$GPRMC,182242.000,A,3138.4061,S,06040.3431,W,0.21,154.43,281013,,,A*6E
0.02546,-0.98784,0.03017
$GPRMC,182243.000,A,3138.4054,S,06040.3429,W,0.05,154.43,281013,,,A*66
0.02108,-0.99173,0.03601
$GPRMC,182244.000,A,3138.4048,S,06040.3427,W,0.08,154.43,281013,,,A*6F
0.02011,-0.98493,0.03504
$GPRMC,182245.000,A,3138.4037,S,06040.3420,W,0.15,154.43,281013,,,A*6D
0.02740,-0.98784,0.02530
$GPRMC,182246.000,A,3138.4036,S,06040.3418,W,0.34,154.43,281013,,,A*67
0.02595,-0.98882,0.03407
$GPRMC,182247.000,A,3138.4037,S,06040.3415,W,0.70,124.03,281013,,,A*69
0.02011,-0.98590,0.03114
$GPRMC,182248.000,A,3138.4035,S,06040.3412,W,0.66,124.19,281013,,,A*6F
0.02449,-0.98687,0.03455
$GPRMC,182249.000,A,3138.4031,S,06040.3408,W,0.33,124.19,281013,,,A*61
0.01622,-0.98687,0.03650
$GPRMC,182250.000,A,3138.4028,S,06040.3406,W,0.33,124.19,281013,,,A*6F
0.02351,-0.98493,0.02432
$GPRMC,182251.000,A,3138.4026,S,06040.3405,W,0.37,124.19,281013,,,A*67
0.02108,-0.98978,0.02919
$GPRMC,182252.000,A,3138.4009,S,06040.3389,W,0.57,124.19,281013,,,A*6C
0.01524,-0.97910,0.02529
$GPRMC,182253.000,A,3138.4009,S,06040.3389,W,0.58,160.40,281013,,,A*6E
0.02254,-0.98978,0.02530
$GPRMC,182254.000,A,3138.4006,S,06040.3387,W,0.58,160.40,281013,,,A*68
0.02157,-0.99270,0.03699
$GPRMC,182255.000,A,3138.4004,S,06040.3387,W,0.57,160.40,281013,,,A*64
0.02594,-0.98396,0.03114
$GPRMC,182256.000,A,3138.4002,S,06040.3385,W,0.54,160.40,281013,,,A*60
0.02254,-0.98299,0.03650
$GPRMC,182257.000,A,3138.3998,S,06040.3383,W,0.56,160.40,281013,,,A*68
0.02740,-0.98979,0.02530
$GPRMC,182258.000,A,3138.4000,S,06040.3383,W,0.71,171.20,281013,,,A*6B
0.02448,-0.98590,0.02432
$GPRMC,182259.000,A,3138.3993,S,06040.3376,W,0.65,166.13,281013,,,A*67
0.02108,-0.99173,0.02140
$GPRMC,182300.000,A,3138.3988,S,06040.3371,W,0.37,166.13,281013,,,A*60
0.02449,-0.99270,0.02822
$GPRMC,182301.000,A,3138.3986,S,06040.3368,W,0.38,166.13,281013,,,A*68
0.02740,-0.98493,0.03114
$GPRMC,182302.000,A,3138.3985,S,06040.3366,W,0.39,166.13,281013,,,A*67
0.01719,-0.98687,0.02919
$GPRMC,182303.000,A,3138.3985,S,06040.3363,W,0.57,166.13,281013,,,A*6B
0.01962,-0.98687,0.02530
$GPRMC,182304.000,A,3138.3986,S,06040.3362,W,0.76,145.59,281013,,,A*62
0.02643,-0.99173,0.03212
$GPRMC,182305.000,A,3138.3988,S,06040.3359,W,0.84,154.46,281013,,,A*66
0.02060,-0.99076,0.02919
$GPRMC,182306.000,A,3138.3992,S,06040.3356,W,1.11,157.73,281013,,,A*69
0.02837,-0.98687,0.02238
$GPRMC,182307.000,A,3138.3995,S,06040.3347,W,1.36,156.79,281013,,,A*61
0.02449,-0.98979,0.03407
$GPRMC,182308.000,A,3138.3999,S,06040.3343,W,1.41,156.28,281013,,,A*62
0.02546,-0.98396,0.02627
$GPRMC,182309.000,A,3138.4002,S,06040.3341,W,1.47,156.99,281013,,,A*61
0.02546,-0.98104,0.02725
$GPRMC,182310.000,A,3138.4004,S,06040.3338,W,1.52,160.16,281013,,,A*67
0.02205,-0.98784,0.02627
$GPRMC,182311.000,A,3138.4004,S,06040.3336,W,1.52,161.76,281013,,,A*6F
0.02497,-0.98784,0.02627
$GPRMC,182312.000,A,3138.4008,S,06040.3335,W,1.55,161.80,281013,,,A*6D
0.01914,-0.98979,0.03650
$GPRMC,182313.000,A,3138.4010,S,06040.3332,W,1.56,161.12,281013,,,A*6A
0.03178,-0.99076,0.03407
$GPRMC,182314.000,A,3138.4013,S,06040.3330,W,1.52,154.59,281013,,,A*61
0.02351,-0.98784,0.03017
$GPRMC,182315.000,A,3138.4016,S,06040.3326,W,1.50,152.95,281013,,,A*66
0.02449,-0.98784,0.03017
$GPRMC,182316.000,A,3138.4020,S,06040.3325,W,1.51,156.37,281013,,,A*6E
0.02254,-0.98104,0.02822
$GPRMC,182317.000,A,3138.4000,S,06040.3331,W,1.18,157.97,281013,,,A*6E
0.02448,-0.98978,0.02432
$GPRMC,182318.000,A,3138.3994,S,06040.3331,W,1.12,157.30,281013,,,A*65
0.02351,-0.98978,0.02043
$GPRMC,182319.000,A,3138.3980,S,06040.3332,W,0.76,146.12,281013,,,A*61
0.02108,-0.98784,0.03406
$GPRMC,182320.000,A,3138.3968,S,06040.3334,W,0.55,146.12,281013,,,A*6A
0.01962,-0.98347,0.03309
$GPRMC,182321.000,A,3138.3963,S,06040.3334,W,0.54,146.12,281013,,,A*61
0.02108,-0.98493,0.03893
$GPRMC,182322.000,A,3138.3959,S,06040.3335,W,0.53,146.12,281013,,,A*6D
0.02352,-0.99173,0.03407
$GPRMC,182323.000,A,3138.3953,S,06040.3336,W,0.52,146.12,281013,,,A*64
0.02692,-0.99367,0.03650
$GPRMC,182324.000,A,3138.3954,S,06040.3335,W,0.44,146.12,281013,,,A*60
0.02692,-0.98493,0.02725
$GPRMC,182325.000,A,3138.3955,S,06040.3334,W,0.41,146.12,281013,,,A*64
0.02060,-0.98784,0.03406
$GPRMC,182326.000,A,3138.3956,S,06040.3333,W,0.49,146.12,281013,,,A*6B
0.03227,-0.98590,0.03017
$GPRMC,182327.000,A,3138.3957,S,06040.3332,W,0.23,146.12,281013,,,A*66
0.02546,-0.99270,0.02627
$GPRMC,182328.000,A,3138.3957,S,06040.3332,W,0.46,146.12,281013,,,A*6A
0.01670,-0.98298,0.02724
$GPRMC,182329.000,A,3138.3956,S,06040.3333,W,0.81,327.27,281013,,,A*63
0.02351,-0.98590,0.02432
$GPRMC,182330.000,A,3138.3956,S,06040.3336,W,0.49,327.27,281013,,,A*6A
0.02060,-0.99367,0.02822
$GPRMC,182331.000,A,3138.3956,S,06040.3337,W,0.17,327.27,281013,,,A*61
0.02837,-0.97959,0.02432
$GPRMC,182332.000,A,3138.3958,S,06040.3338,W,0.22,327.27,281013,,,A*65
0.02449,-0.99464,0.02725
$GPRMC,182333.000,A,3138.3958,S,06040.3338,W,0.29,327.27,281013,,,A*6F
0.02497,-0.98687,0.03114
$GPRMC,182334.000,A,3138.3959,S,06040.3338,W,0.62,162.77,281013,,,A*60
0.02205,-0.98201,0.03017
$GPRMC,182335.000,A,3138.3961,S,06040.3338,W,0.63,165.23,281013,,,A*6D
0.02254,-0.99076,0.03650
$GPRMC,182336.000,A,3138.3959,S,06040.3339,W,0.27,165.23,281013,,,A*64
0.02448,-0.98493,0.02725
$GPRMC,182337.000,A,3138.3959,S,06040.3341,W,0.23,165.23,281013,,,A*6E
0.02692,-0.98784,0.03260
$GPRMC,182338.000,A,3138.3958,S,06040.3344,W,0.28,165.23,281013,,,A*6E
0.02157,-0.98590,0.03406
$GPRMC,182339.000,A,3138.3959,S,06040.3346,W,0.32,165.23,281013,,,A*67
0.02205,-0.98687,0.02919
$GPRMC,182340.000,A,3138.3960,S,06040.3347,W,0.53,165.23,281013,,,A*65
0.02254,-0.98590,0.02432
$GPRMC,182341.000,A,3138.3961,S,06040.3346,W,0.80,145.31,281013,,,A*6B
0.02157,-0.98299,0.03017
$GPRMC,182342.000,A,3138.3964,S,06040.3343,W,1.03,137.75,281013,,,A*67
0.01816,-0.98396,0.03114
$GPRMC,182343.000,A,3138.3966,S,06040.3341,W,1.05,139.97,281013,,,A*62
0.02254,-0.98687,0.02238
$GPRMC,182344.000,A,3138.3968,S,06040.3340,W,0.97,140.76,281013,,,A*61
0.02449,-0.98396,0.03260
$GPRMC,182345.000,A,3138.3969,S,06040.3339,W,0.91,141.45,281013,,,A*68
0.02546,-0.98784,0.02335
$GPRMC,182346.000,A,3138.3968,S,06040.3337,W,0.86,141.59,281013,,,A*6F
0.02594,-0.98590,0.02530
$GPRMC,182347.000,A,3138.3968,S,06040.3337,W,0.64,142.14,281013,,,A*68
0.02740,-0.98202,0.03406
$GPRMC,182348.000,A,3138.3969,S,06040.3338,W,0.60,142.43,281013,,,A*6F
0.02497,-0.98687,0.02627
$GPRMC,182349.000,A,3138.3969,S,06040.3338,W,0.41,142.54,281013,,,A*6B
0.02303,-0.99270,0.02530
$GPRMC,182350.000,A,3138.3968,S,06040.3340,W,0.38,142.62,281013,,,A*66
0.02448,-0.98493,0.02627
$GPRMC,182351.000,A,3138.3969,S,06040.3342,W,0.44,142.62,281013,,,A*6F
0.02157,-0.98493,0.03114
$GPRMC,182352.000,A,3138.3971,S,06040.3343,W,0.43,142.62,281013,,,A*63
0.02789,-0.98493,0.03504
$GPRMC,182353.000,A,3138.3972,S,06040.3342,W,0.61,145.62,281013,,,A*67
0.01914,-0.98687,0.02725
$GPRMC,182354.000,A,3138.3971,S,06040.3343,W,0.54,145.62,281013,,,A*64
0.02254,-0.98784,0.02335
$GPRMC,182355.000,A,3138.3971,S,06040.3343,W,0.38,145.62,281013,,,A*6F
0.02108,-0.98784,0.03114
$GPRMC,182356.000,A,3138.3972,S,06040.3343,W,0.55,145.62,281013,,,A*64
0.02497,-0.98784,0.02725
$GPRMC,182357.000,A,3138.3973,S,06040.3342,W,0.72,145.73,281013,,,A*60
0.02449,-0.98978,0.02627
$GPRMC,182358.000,A,3138.3974,S,06040.3342,W,0.73,145.72,281013,,,A*68
0.02303,-0.98493,0.03017
$GPRMC,182359.000,A,3138.3974,S,06040.3339,W,0.72,128.90,281013,,,A*63
0.02595,-0.98979,0.03017
$GPRMC,182400.000,A,3138.3973,S,06040.3338,W,0.45,128.90,281013,,,A*6A
0.02205,-0.98881,0.02530
$GPRMC,182401.000,A,3138.3972,S,06040.3339,W,0.25,128.90,281013,,,A*6D
0.02449,-0.99367,0.02433
$GPRMC,182402.000,A,3138.3972,S,06040.3340,W,0.24,128.90,281013,,,A*61
0.02254,-0.98881,0.03309
$GPRMC,182403.000,A,3138.3973,S,06040.3339,W,0.29,128.90,281013,,,A*62
0.02351,-0.98978,0.02773
$GPRMC,182404.000,A,3138.3973,S,06040.3338,W,0.48,128.90,281013,,,A*63
0.02643,-0.98590,0.02140
$GPRMC,182405.000,A,3138.3975,S,06040.3337,W,0.41,128.90,281013,,,A*62
0.02108,-0.98493,0.03017
$GPRMC,182406.000,A,3138.3975,S,06040.3337,W,0.44,128.90,281013,,,A*64
0.02643,-0.99173,0.02822
$GPRMC,182407.000,A,3138.3977,S,06040.3337,W,0.47,128.90,281013,,,A*64
0.02546,-0.98396,0.02432
$GPRMC,182408.000,A,3138.3978,S,06040.3337,W,0.57,128.90,281013,,,A*65
0.02303,-0.98687,0.03212
$GPRMC,182409.000,A,3138.3980,S,06040.3337,W,0.47,128.90,281013,,,A*62
0.02351,-0.99173,0.02627
$GPRMC,182410.000,A,3138.3981,S,06040.3337,W,0.40,128.90,281013,,,A*6C
0.02060,-0.98493,0.03796
$GPRMC,182411.000,A,3138.3982,S,06040.3337,W,0.31,128.90,281013,,,A*68
0.01622,-0.98784,0.02140
$GPRMC,182412.000,A,3138.3982,S,06040.3338,W,0.41,128.90,281013,,,A*63
0.02400,-0.98784,0.02335
$GPRMC,182413.000,A,3138.3983,S,06040.3339,W,0.46,128.90,281013,,,A*65
0.02546,-0.98881,0.02432
$GPRMC,182414.000,A,3138.3984,S,06040.3339,W,0.74,134.63,281013,,,A*65
0.02108,-0.98881,0.03017
$GPRMC,182415.000,A,3138.3989,S,06040.3336,W,0.99,158.71,281013,,,A*6C
0.02594,-0.98590,0.02530
$GPRMC,182416.000,A,3138.3991,S,06040.3333,W,0.82,156.33,281013,,,A*61
0.02108,-0.99367,0.02335
$GPRMC,182417.000,A,3138.3989,S,06040.3334,W,0.32,156.33,281013,,,A*65
0.02157,-0.98881,0.02238
$GPRMC,182418.000,A,3138.3987,S,06040.3335,W,0.06,156.33,281013,,,A*62
0.01427,-0.99075,0.02530
$GPRMC,182419.000,A,3138.3985,S,06040.3337,W,0.08,156.33,281013,,,A*6D
0.02449,-0.98784,0.02725
$GPRMC,182420.000,A,3138.3988,S,06040.3337,W,0.26,156.33,281013,,,A*66
0.02935,-0.98978,0.02043
$GPRMC,182421.000,A,3138.3989,S,06040.3336,W,0.69,135.62,281013,,,A*6D
0.02351,-0.99076,0.02530
$GPRMC,182422.000,A,3138.3992,S,06040.3334,W,0.85,133.06,281013,,,A*60
0.02011,-0.99173,0.02043
$GPRMC,182423.000,A,3138.3993,S,06040.3333,W,0.78,134.03,281013,,,A*67
0.02254,-0.98687,0.02530
$GPRMC,182424.000,A,3138.3994,S,06040.3333,W,0.54,134.03,281013,,,A*69
0.01914,-0.99367,0.01653
$GPRMC,182425.000,A,3138.3995,S,06040.3334,W,0.50,134.03,281013,,,A*6A
0.02108,-0.98590,0.03114
$GPRMC,182426.000,A,3138.3994,S,06040.3333,W,0.50,134.03,281013,,,A*6F
0.02011,-0.98784,0.02238
$GPRMC,182427.000,A,3138.3996,S,06040.3335,W,0.57,159.89,281013,,,A*64
0.02011,-0.98978,0.02335
$GPRMC,182428.000,A,3138.3999,S,06040.3334,W,0.64,165.99,281013,,,A*6B
0.02011,-0.98881,0.03017
$GPRMC,182429.000,A,3138.4001,S,06040.3334,W,0.66,170.07,281013,,,A*64
0.02449,-0.99658,0.02433
$GPRMC,182430.000,A,3138.4003,S,06040.3334,W,0.68,174.23,281013,,,A*62
0.02546,-0.98978,0.02043
$GPRMC,182431.000,A,3138.4003,S,06040.3333,W,0.70,163.46,281013,,,A*68
0.02011,-0.98978,0.02432
$GPRMC,182432.000,A,3138.4004,S,06040.3332,W,0.72,164.00,281013,,,A*6A
0.01524,-0.98590,0.01702
$GPRMC,182433.000,A,3138.4008,S,06040.3331,W,0.91,166.11,281013,,,A*6B
0.02594,-0.98493,0.02140
$GPRMC,182434.000,A,3138.4008,S,06040.3333,W,0.61,198.43,281013,,,A*67
0.02254,-0.98007,0.02432
$GPRMC,182435.000,A,3138.4005,S,06040.3337,W,0.59,198.43,281013,,,A*64
0.02254,-0.98590,0.02238
$GPRMC,182436.000,A,3138.4001,S,06040.3339,W,0.58,198.43,281013,,,A*6C
0.01427,-0.98784,0.02432
$GPRMC,182437.000,A,3138.3999,S,06040.3340,W,0.27,198.43,281013,,,A*64
0.02400,-0.98784,0.02530
$GPRMC,182438.000,A,3138.4000,S,06040.3340,W,0.27,198.43,281013,,,A*65
0.02448,-0.99075,0.01556
$GPRMC,182439.000,A,3138.4001,S,06040.3340,W,0.54,198.43,281013,,,A*61
0.01622,-0.99367,0.02238
$GPRMC,182440.000,A,3138.4002,S,06040.3339,W,0.81,151.62,281013,,,A*6C
0.02157,-0.98881,0.02238
$GPRMC,182441.000,A,3138.4002,S,06040.3336,W,0.84,139.25,281013,,,A*6A
0.01914,-0.98493,0.02968
$GPRMC,182442.000,A,3138.3998,S,06040.3335,W,0.61,125.95,281013,,,A*6A
0.02011,-0.99172,0.01653
$GPRMC,182443.000,A,3138.3996,S,06040.3334,W,0.54,125.95,281013,,,A*62
0.02837,-0.98881,0.02335
$GPRMC,182444.000,A,3138.3995,S,06040.3333,W,0.53,125.95,281013,,,A*66
0.02059,-0.98881,0.02140
$GPRMC,182445.000,A,3138.3993,S,06040.3332,W,0.25,125.95,281013,,,A*61
0.02157,-0.98784,0.02043
$GPRMC,182446.000,A,3138.3989,S,06040.3334,W,0.20,125.95,281013,,,A*6A
0.03032,-0.98881,0.02043
$GPRMC,182447.000,A,3138.3989,S,06040.3335,W,0.22,125.95,281013,,,A*68
0.02302,-0.98590,0.01751
$GPRMC,182448.000,A,3138.3989,S,06040.3336,W,0.28,125.95,281013,,,A*6E
0.01622,-0.99075,0.02043
$GPRMC,182449.000,A,3138.3990,S,06040.3335,W,0.57,125.95,281013,,,A*6C
0.01962,-0.98978,0.01848
$GPRMC,182450.000,A,3138.3992,S,06040.3335,W,0.56,125.95,281013,,,A*67
0.01719,-0.98784,0.02530
$GPRMC,182451.000,A,3138.3993,S,06040.3334,W,0.54,125.95,281013,,,A*64
0.01914,-0.99173,0.02432
$GPRMC,182452.000,A,3138.3995,S,06040.3334,W,0.56,125.95,281013,,,A*63
0.01816,-0.98978,0.02432
$GPRMC,182453.000,A,3138.3996,S,06040.3335,W,0.61,134.18,281013,,,A*61
0.01962,-0.98687,0.01945
$GPRMC,182454.000,A,3138.3997,S,06040.3335,W,0.40,134.18,281013,,,A*64
0.02059,-0.98201,0.02822
$GPRMC,182455.000,A,3138.3995,S,06040.3337,W,0.35,134.18,281013,,,A*67
0.02157,-0.99367,0.02725
$GPRMC,182456.000,A,3138.3996,S,06040.3338,W,0.34,134.18,281013,,,A*69
0.02011,-0.98784,0.02627
$GPRMC,182457.000,A,3138.3998,S,06040.3339,W,0.32,134.18,281013,,,A*61
0.02351,-0.98299,0.03017
$GPRMC,182458.000,A,3138.3998,S,06040.3339,W,0.32,134.18,281013,,,A*6E
0.01816,-0.99173,0.02530
$GPRMC,182459.000,A,3138.3999,S,06040.3339,W,0.36,134.18,281013,,,A*6A
0.02205,-0.99075,0.02238
$GPRMC,182500.000,A,3138.4000,S,06040.3339,W,0.24,134.18,281013,,,A*6A
0.01525,-0.98687,0.02773
$GPRMC,182501.000,A,3138.4001,S,06040.3339,W,0.35,134.18,281013,,,A*6A
0.02108,-0.98687,0.01945
$GPRMC,182502.000,A,3138.4002,S,06040.3339,W,0.68,184.58,281013,,,A*6D
0.02011,-0.98881,0.01848
$GPRMC,182503.000,A,3138.4007,S,06040.3338,W,0.91,176.02,281013,,,A*6C
0.01816,-0.98784,0.02237
$GPRMC,182504.000,A,3138.4015,S,06040.3337,W,1.07,169.66,281013,,,A*65
0.01913,-0.98201,0.02140
$GPRMC,182505.000,A,3138.4019,S,06040.3336,W,1.03,170.42,281013,,,A*63
0.01719,-0.99707,0.02822
$GPRMC,182506.000,A,3138.4022,S,06040.3336,W,0.96,171.27,281013,,,A*67
0.01914,-0.98687,0.02432
$GPRMC,182507.000,A,3138.4023,S,06040.3338,W,0.95,180.09,281013,,,A*68
0.01816,-0.98590,0.02043
$GPRMC,182508.000,A,3138.4025,S,06040.3338,W,1.02,179.11,281013,,,A*61
0.02108,-0.98881,0.03309
$GPRMC,182509.000,A,3138.4025,S,06040.3337,W,1.03,177.49,281013,,,A*6D
0.01427,-0.99270,0.02432
$GPRMC,182510.000,A,3138.4026,S,06040.3337,W,0.98,176.56,281013,,,A*6A
0.02157,-0.98784,0.02919
$GPRMC,182511.000,A,3138.4025,S,06040.3338,W,0.64,185.17,281013,,,A*6D
0.02108,-0.98784,0.02335
$GPRMC,182512.000,A,3138.4024,S,06040.3339,W,0.62,190.63,281013,,,A*6F
0.02108,-0.98590,0.02140
$GPRMC,182513.000,A,3138.4025,S,06040.3339,W,0.67,189.40,281013,,,A*63
0.01914,-0.99075,0.02432
$GPRMC,182514.000,A,3138.4027,S,06040.3337,W,0.83,187.42,281013,,,A*6E
0.02108,-0.98784,0.01751
$GPRMC,182515.000,A,3138.4030,S,06040.3335,W,0.99,161.89,281013,,,A*6F
0.02448,-0.99173,0.02238
$GPRMC,182516.000,A,3138.4030,S,06040.3334,W,0.96,160.76,281013,,,A*63
0.01914,-0.99270,0.02530
$GPRMC,182517.000,A,3138.4032,S,06040.3333,W,0.89,163.02,281013,,,A*69
0.02254,-0.98978,0.02627
$GPRMC,182518.000,A,3138.4033,S,06040.3333,W,0.83,169.76,281013,,,A*64
0.02400,-0.99318,0.02238
$GPRMC,182519.000,A,3138.4034,S,06040.3334,W,0.76,172.80,281013,,,A*6C
0.02546,-0.98590,0.02140
$GPRMC,182520.000,A,3138.4036,S,06040.3333,W,0.71,172.08,281013,,,A*64
0.02254,-0.98153,0.02919
$GPRMC,182521.000,A,3138.4039,S,06040.3332,W,0.70,171.15,281013,,,A*65
0.02156,-0.98104,0.01653
$GPRMC,182522.000,A,3138.4040,S,06040.3331,W,0.95,154.80,281013,,,A*6B
0.02789,-0.98590,0.02335
$GPRMC,182523.000,A,3138.4042,S,06040.3329,W,1.01,147.26,281013,,,A*63
0.02351,-0.98978,0.02238
$GPRMC,182524.000,A,3138.4045,S,06040.3327,W,1.05,143.69,281013,,,A*66
0.02351,-0.99075,0.01945
$GPRMC,182525.000,A,3138.4047,S,06040.3326,W,1.01,145.58,281013,,,A*64
0.02205,-0.98881,0.02043
$GPRMC,182526.000,A,3138.4049,S,06040.3325,W,0.67,158.43,281013,,,A*6D
0.02108,-0.98881,0.02140
$GPRMC,182527.000,A,3138.4041,S,06040.3327,W,0.19,158.43,281013,,,A*6F
0.02448,-0.99076,0.02140
$GPRMC,182528.000,A,3138.4035,S,06040.3330,W,0.12,158.43,281013,,,A*6E
0.02011,-0.99173,0.01945
$GPRMC,182529.000,A,3138.4033,S,06040.3334,W,0.13,158.43,281013,,,A*6C
0.02205,-0.98590,0.02432
$GPRMC,182530.000,A,3138.4031,S,06040.3335,W,0.41,158.43,281013,,,A*60
0.02254,-0.98784,0.02919
$GPRMC,182531.000,A,3138.4030,S,06040.3336,W,0.80,317.35,281013,,,A*66
0.02643,-0.98687,0.02530
$GPRMC,182532.000,A,3138.4022,S,06040.3340,W,0.87,323.31,281013,,,A*63
0.02011,-0.99172,0.01848
$GPRMC,182533.000,A,3138.4016,S,06040.3342,W,0.82,324.26,281013,,,A*63
0.02011,-0.98978,0.02725
$GPRMC,182534.000,A,3138.4015,S,06040.3343,W,0.56,324.26,281013,,,A*6F
0.02108,-0.98396,0.02335
$GPRMC,182535.000,A,3138.4020,S,06040.3341,W,0.20,324.26,281013,,,A*6B
0.02254,-0.99464,0.02530
$GPRMC,182536.000,A,3138.4024,S,06040.3340,W,0.15,324.26,281013,,,A*6B
0.01962,-0.98687,0.01848
$GPRMC,182537.000,A,3138.4026,S,06040.3339,W,0.31,324.26,281013,,,A*60
0.01914,-0.98881,0.02725
$GPRMC,182538.000,A,3138.4025,S,06040.3340,W,0.42,324.26,281013,,,A*66
0.02546,-0.99076,0.02627
$GPRMC,182539.000,A,3138.4024,S,06040.3340,W,0.36,324.26,281013,,,A*65
0.02643,-0.98396,0.02432
$GPRMC,182540.000,A,3138.4023,S,06040.3340,W,0.29,324.26,281013,,,A*62
0.02789,-0.98881,0.02043
$GPRMC,182541.000,A,3138.4022,S,06040.3340,W,0.28,324.26,281013,,,A*63
0.02205,-0.98687,0.02627
$GPRMC,182542.000,A,3138.4023,S,06040.3339,W,0.47,324.26,281013,,,A*66
0.02011,-0.99561,0.02238
$GPRMC,182543.000,A,3138.4024,S,06040.3338,W,0.58,138.41,281013,,,A*61
0.02060,-0.99804,0.03114
$GPRMC,182544.000,A,3138.4031,S,06040.3334,W,0.64,150.07,281013,,,A*6D
0.02351,-0.98784,0.02627
$GPRMC,182545.000,A,3138.4034,S,06040.3331,W,0.44,150.07,281013,,,A*6E
0.02303,-0.98687,0.02627
$GPRMC,182546.000,A,3138.4033,S,06040.3330,W,0.20,150.07,281013,,,A*69
0.02303,-0.99658,0.02140
$GPRMC,182547.000,A,3138.4035,S,06040.3329,W,0.24,150.07,281013,,,A*62
0.01914,-0.99075,0.02335
$GPRMC,182548.000,A,3138.4042,S,06040.3327,W,0.58,164.24,281013,,,A*6E
0.02351,-0.97861,0.01750
$GPRMC,182549.000,A,3138.4048,S,06040.3324,W,0.55,164.24,281013,,,A*6B
0.02546,-0.98784,0.02530
$GPRMC,182550.000,A,3138.4052,S,06040.3322,W,0.37,164.24,281013,,,A*6A
0.02692,-0.98590,0.02822
$GPRMC,182551.000,A,3138.4053,S,06040.3321,W,0.38,164.24,281013,,,A*66
0.02302,-0.98493,0.02238
$GPRMC,182552.000,A,3138.4055,S,06040.3320,W,0.36,164.24,281013,,,A*6C
0.02205,-0.99075,0.02238
$GPRMC,182553.000,A,3138.4056,S,06040.3320,W,0.39,164.24,281013,,,A*61
0.01816,-0.98784,0.02237
$GPRMC,182554.000,A,3138.4057,S,06040.3320,W,0.23,164.24,281013,,,A*6C
0.02205,-0.98590,0.01848
$GPRMC,182555.000,A,3138.4057,S,06040.3320,W,0.30,164.24,281013,,,A*6F
0.02157,-0.98590,0.02627
$GPRMC,182556.000,A,3138.4057,S,06040.3321,W,0.26,164.24,281013,,,A*6A
0.02157,-0.98784,0.02043
$GPRMC,182557.000,A,3138.4057,S,06040.3322,W,0.05,164.24,281013,,,A*69
0.01622,-0.99075,0.02627
$GPRMC,182558.000,A,3138.4057,S,06040.3322,W,0.23,164.24,281013,,,A*62
0.01622,-0.98784,0.02432
$GPRMC,182559.000,A,3138.4058,S,06040.3321,W,0.18,164.24,281013,,,A*67
0.01913,-0.98590,0.01945
$GPRMC,182600.000,A,3138.4058,S,06040.3321,W,0.25,164.24,281013,,,A*66
0.02011,-0.98881,0.02043
$GPRMC,182601.000,A,3138.4059,S,06040.3321,W,0.49,164.24,281013,,,A*6C
0.01914,-0.98881,0.02432
$GPRMC,182602.000,A,3138.4060,S,06040.3320,W,0.73,163.90,281013,,,A*65
0.02108,-0.98493,0.02432
$GPRMC,182603.000,A,3138.4062,S,06040.3319,W,1.03,154.01,281013,,,A*66
0.02448,-0.98881,0.02432
$GPRMC,182604.000,A,3138.4057,S,06040.3321,W,0.96,153.29,281013,,,A*6C
0.02205,-0.98493,0.02432
$GPRMC,182605.000,A,3138.4055,S,06040.3322,W,0.90,156.57,281013,,,A*66
0.02302,-0.98493,0.02432
$GPRMC,182606.000,A,3138.4056,S,06040.3322,W,0.87,159.44,281013,,,A*6D
0.02448,-0.98590,0.02335
$GPRMC,182607.000,A,3138.4055,S,06040.3323,W,0.57,159.44,281013,,,A*63
0.01914,-0.98784,0.02530
$GPRMC,182608.000,A,3138.4049,S,06040.3326,W,0.22,159.44,281013,,,A*66
0.02254,-0.99173,0.02822
$GPRMC,182609.000,A,3138.4049,S,06040.3326,W,0.25,159.44,281013,,,A*60
0.01330,-0.98395,0.02042
$GPRMC,182610.000,A,3138.4054,S,06040.3325,W,0.62,160.08,281013,,,A*66
0.02692,-0.98687,0.02530
$GPRMC,182611.000,A,3138.4058,S,06040.3324,W,0.62,161.46,281013,,,A*61
0.02205,-0.98493,0.02238
$GPRMC,182612.000,A,3138.4058,S,06040.3323,W,0.32,161.96,281013,,,A*6D
0.02303,-0.99658,0.01946
$GPRMC,182613.000,A,3138.4054,S,06040.3325,W,0.29,162.44,281013,,,A*60
0.02205,-0.98687,0.02432
$GPRMC,182614.000,A,3138.4049,S,06040.3327,W,0.29,162.80,281013,,,A*61
0.01816,-0.99270,0.02238
$GPRMC,182615.000,A,3138.4056,S,06040.3324,W,0.72,162.03,281013,,,A*68
0.02838,-0.99464,0.02725
$GPRMC,182616.000,A,3138.4055,S,06040.3324,W,0.73,161.26,281013,,,A*6D
0.02205,-0.98298,0.02432
$GPRMC,182617.000,A,3138.4059,S,06040.3323,W,0.72,162.36,281013,,,A*64
0.02011,-0.98590,0.02140
$GPRMC,182618.000,A,3138.4060,S,06040.3322,W,0.70,161.27,281013,,,A*61
0.02254,-0.98299,0.03017
$GPRMC,182619.000,A,3138.4052,S,06040.3324,W,0.39,161.27,281013,,,A*6A
0.01816,-0.98687,0.02043
$GPRMC,182620.000,A,3138.4052,S,06040.3326,W,0.57,161.27,281013,,,A*6A
0.01719,-0.98784,0.02237
$GPRMC,182621.000,A,3138.4056,S,06040.3326,W,0.84,164.64,281013,,,A*63
0.02643,-0.98104,0.02238
$GPRMC,182622.000,A,3138.4066,S,06040.3324,W,1.14,166.76,281013,,,A*68
0.02205,-0.98784,0.01848
$GPRMC,182623.000,A,3138.4071,S,06040.3321,W,1.18,168.28,281013,,,A*63
0.02351,-0.98784,0.02432
$GPRMC,182624.000,A,3138.4069,S,06040.3321,W,1.20,165.74,281013,,,A*62
0.02157,-0.98881,0.02919
$GPRMC,182625.000,A,3138.4069,S,06040.3319,W,1.24,158.42,281013,,,A*67
0.02108,-0.98687,0.02238
$GPRMC,182626.000,A,3138.4065,S,06040.3319,W,1.21,158.34,281013,,,A*6C
0.02546,-0.98687,0.02140
$GPRMC,182627.000,A,3138.4064,S,06040.3318,W,1.18,153.80,281013,,,A*63
0.02740,-0.98687,0.02433
$GPRMC,182628.000,A,3138.4066,S,06040.3316,W,1.17,159.59,281013,,,A*61
0.02400,-0.98978,0.02627
$GPRMC,182629.000,A,3138.4059,S,06040.3317,W,0.83,161.76,281013,,,A*67
0.02011,-0.99076,0.02919
$GPRMC,182630.000,A,3138.4052,S,06040.3318,W,0.58,160.80,281013,,,A*65
0.02011,-0.98493,0.02043
$GPRMC,182631.000,A,3138.4048,S,06040.3319,W,0.52,160.80,281013,,,A*64
0.02011,-0.99173,0.02238
$GPRMC,182632.000,A,3138.4042,S,06040.3321,W,0.37,160.80,281013,,,A*65
0.01427,-0.98590,0.02335
$GPRMC,182633.000,A,3138.4042,S,06040.3323,W,0.42,160.80,281013,,,A*64
0.02157,-0.99075,0.01945
$GPRMC,182634.000,A,3138.4044,S,06040.3323,W,0.48,160.80,281013,,,A*6F
0.02302,-0.98590,0.02140
$GPRMC,182635.000,A,3138.4045,S,06040.3322,W,0.64,171.80,281013,,,A*60
0.02400,-0.98493,0.02238
$GPRMC,182636.000,A,3138.4047,S,06040.3321,W,0.70,160.33,281013,,,A*6F
0.02351,-0.98881,0.02432
$GPRMC,182637.000,A,3138.4044,S,06040.3324,W,0.68,161.46,281013,,,A*62
0.00212,-0.98686,0.02042
$GPRMC,182638.000,A,3138.4040,S,06040.3326,W,0.33,161.46,281013,,,A*65
0.02448,-0.98978,0.01945
$GPRMC,182639.000,A,3138.4036,S,06040.3330,W,0.50,161.46,281013,,,A*67
0.02205,-0.99173,0.02238
$GPRMC,182640.000,A,3138.4031,S,06040.3334,W,0.50,161.46,281013,,,A*6A
0.02108,-0.98396,0.02335
$GPRMC,182641.000,A,3138.4029,S,06040.3336,W,0.50,161.46,281013,,,A*60
0.02546,-0.98493,0.02335
$GPRMC,182642.000,A,3138.4028,S,06040.3338,W,0.15,161.46,281013,,,A*6D
0.02011,-0.98493,0.02627
$GPRMC,182643.000,A,3138.4029,S,06040.3338,W,0.19,161.46,281013,,,A*61
0.02108,-0.98590,0.02432
$GPRMC,182644.000,A,3138.4029,S,06040.3338,W,0.34,161.46,281013,,,A*69
0.02351,-0.98687,0.01751
$GPRMC,182645.000,A,3138.4030,S,06040.3338,W,0.42,161.46,281013,,,A*61
0.02400,-0.99173,0.02627
$GPRMC,182646.000,A,3138.4031,S,06040.3338,W,0.35,161.46,281013,,,A*63
0.01913,-0.98493,0.02043
$GPRMC,182647.000,A,3138.4032,S,06040.3339,W,0.36,161.46,281013,,,A*63
0.01962,-0.98978,0.01848
$GPRMC,182648.000,A,3138.4032,S,06040.3340,W,0.41,161.46,281013,,,A*62
0.02205,-0.98396,0.02140
$GPRMC,182649.000,A,3138.4033,S,06040.3341,W,0.37,161.46,281013,,,A*62
0.01914,-0.98590,0.02432
$GPRMC,182650.000,A,3138.4034,S,06040.3341,W,0.34,161.46,281013,,,A*6E
0.02157,-0.98881,0.02432
$GPRMC,182651.000,A,3138.4035,S,06040.3341,W,0.12,161.46,281013,,,A*6A
0.02011,-0.98881,0.02725
$GPRMC,182652.000,A,3138.4034,S,06040.3340,W,0.36,161.46,281013,,,A*6F
0.02254,-0.99075,0.02043
$GPRMC,182653.000,A,3138.4034,S,06040.3341,W,0.40,161.46,281013,,,A*6E
0.02108,-0.99173,0.02432
$GPRMC,182654.000,A,3138.4033,S,06040.3342,W,0.32,161.46,281013,,,A*68
0.02011,-0.98687,0.02140
$GPRMC,182655.000,A,3138.4032,S,06040.3343,W,0.19,161.46,281013,,,A*60
0.02205,-0.98493,0.02140
$GPRMC,182656.000,A,3138.4032,S,06040.3343,W,0.32,161.46,281013,,,A*6A
0.02546,-0.98493,0.02043
$GPRMC,182657.000,A,3138.4031,S,06040.3343,W,0.14,161.46,281013,,,A*6C
0.02643,-0.98590,0.01945
$GPRMC,182658.000,A,3138.4030,S,06040.3343,W,0.20,161.46,281013,,,A*65
0.02108,-0.98493,0.02432
$GPRMC,182659.000,A,3138.4030,S,06040.3343,W,0.35,161.46,281013,,,A*60
0.02837,-0.98396,0.01945
$GPRMC,182700.000,A,3138.4031,S,06040.3342,W,0.23,161.46,281013,,,A*6A
0.02108,-0.98493,0.02043
$GPRMC,182701.000,A,3138.4032,S,06040.3342,W,0.18,161.46,281013,,,A*60
0.02837,-0.98202,0.02822
$GPRMC,182702.000,A,3138.4032,S,06040.3342,W,0.47,161.46,281013,,,A*69
0.02351,-0.98687,0.01945
$GPRMC,182703.000,A,3138.4031,S,06040.3344,W,0.77,306.53,281013,,,A*69
0.01136,-0.98978,0.02724
$GPRMC,182704.000,A,3138.4028,S,06040.3347,W,0.81,307.00,281013,,,A*6B
0.02351,-0.98493,0.02432
$GPRMC,182705.000,A,3138.4025,S,06040.3347,W,0.41,307.00,281013,,,A*6B
0.02351,-0.99076,0.02627
$GPRMC,182706.000,A,3138.4023,S,06040.3349,W,0.36,307.00,281013,,,A*60
0.01914,-0.98784,0.02627
$GPRMC,182707.000,A,3138.4023,S,06040.3349,W,0.29,307.00,281013,,,A*6F
0.02302,-0.98493,0.01945
$GPRMC,182708.000,A,3138.4024,S,06040.3349,W,0.45,307.00,281013,,,A*6D
0.02448,-0.98590,0.02335
$GPRMC,182709.000,A,3138.4026,S,06040.3348,W,0.67,161.74,281013,,,A*6E
0.01816,-0.98784,0.03114
$GPRMC,182710.000,A,3138.4027,S,06040.3348,W,0.72,163.32,281013,,,A*63
0.02546,-0.99270,0.02335
$GPRMC,182711.000,A,3138.4026,S,06040.3348,W,0.55,163.32,281013,,,A*66
0.02205,-0.98881,0.01751
$GPRMC,182712.000,A,3138.4025,S,06040.3348,W,0.39,163.32,281013,,,A*6C
0.02351,-0.98881,0.03504
$GPRMC,182713.000,A,3138.4023,S,06040.3349,W,0.37,163.32,281013,,,A*64
0.02254,-0.98590,0.01945
$GPRMC,182714.000,A,3138.4023,S,06040.3350,W,0.36,163.32,281013,,,A*6A
0.02400,-0.98493,0.02140
$GPRMC,182715.000,A,3138.4024,S,06040.3350,W,0.40,163.32,281013,,,A*6D
0.01914,-0.98881,0.02335
$GPRMC,182716.000,A,3138.4025,S,06040.3350,W,0.41,163.32,281013,,,A*6E
0.02351,-0.98881,0.01848
$GPRMC,182717.000,A,3138.4026,S,06040.3349,W,0.30,163.32,281013,,,A*62
0.02351,-0.98881,0.02725
$GPRMC,182718.000,A,3138.4027,S,06040.3349,W,0.31,163.32,281013,,,A*6D
0.02351,-0.98590,0.03406
$GPRMC,182719.000,A,3138.4028,S,06040.3350,W,0.21,163.32,281013,,,A*6A
0.02448,-0.98978,0.02140
$GPRMC,182720.000,A,3138.4028,S,06040.3350,W,0.27,163.32,281013,,,A*66
0.02157,-0.98687,0.02530
$GPRMC,182721.000,A,3138.4029,S,06040.3350,W,0.21,163.32,281013,,,A*60
0.02108,-0.98687,0.01945
$GPRMC,182722.000,A,3138.4029,S,06040.3351,W,0.09,163.32,281013,,,A*68
0.02108,-0.98687,0.02238
$GPRMC,182723.000,A,3138.4029,S,06040.3351,W,0.19,163.32,281013,,,A*68
0.01816,-0.98201,0.02043
$GPRMC,182724.000,A,3138.4030,S,06040.3351,W,0.29,163.32,281013,,,A*64
0.02011,-0.98978,0.02725
$GPRMC,182725.000,A,3138.4031,S,06040.3351,W,0.32,163.32,281013,,,A*6E
0.02449,-0.99270,0.02433
$GPRMC,182726.000,A,3138.4031,S,06040.3350,W,0.25,163.32,281013,,,A*6A
0.02011,-0.98784,0.02335
$GPRMC,182727.000,A,3138.4032,S,06040.3350,W,0.23,163.32,281013,,,A*6E
0.02351,-0.98493,0.02238
$GPRMC,182728.000,A,3138.4032,S,06040.3349,W,0.07,163.32,281013,,,A*6F
0.01719,-0.98298,0.02237
$GPRMC,182729.000,A,3138.4032,S,06040.3349,W,0.56,163.32,281013,,,A*6A
0.02448,-0.99075,0.01556
$GPRMC,182730.000,A,3138.4031,S,06040.3350,W,0.54,163.32,281013,,,A*6B
0.02546,-0.98784,0.02043
$GPRMC,182731.000,A,3138.4029,S,06040.3350,W,0.20,163.32,281013,,,A*60
0.02011,-0.98396,0.02530
$GPRMC,182732.000,A,3138.4029,S,06040.3349,W,0.32,163.32,281013,,,A*68
0.02108,-0.99270,0.02530
$GPRMC,182733.000,A,3138.4028,S,06040.3350,W,0.62,334.59,281013,,,A*68
0.02546,-0.98979,0.03017
$GPRMC,182734.000,A,3138.4023,S,06040.3351,W,0.56,334.59,281013,,,A*62
0.02254,-0.99270,0.02043
$GPRMC,182735.000,A,3138.4024,S,06040.3349,W,0.13,334.59,281013,,,A*6C
0.02303,-0.98784,0.02432
$GPRMC,182736.000,A,3138.4029,S,06040.3346,W,0.16,334.59,281013,,,A*68
0.02302,-0.98493,0.02238
$GPRMC,182737.000,A,3138.4032,S,06040.3345,W,0.22,334.59,281013,,,A*67
0.02303,-0.98687,0.02335
$GPRMC,182738.000,A,3138.4032,S,06040.3344,W,0.18,334.59,281013,,,A*60
0.01427,-0.98881,0.01945
$GPRMC,182739.000,A,3138.4033,S,06040.3344,W,0.18,334.59,281013,,,A*60
0.02254,-0.98784,0.02335
$GPRMC,182740.000,A,3138.4032,S,06040.3344,W,0.36,334.59,281013,,,A*63
0.01816,-0.98493,0.02237
$GPRMC,182741.000,A,3138.4031,S,06040.3345,W,0.67,343.79,281013,,,A*66
0.01914,-0.99173,0.02432
$GPRMC,182742.000,A,3138.4022,S,06040.3347,W,0.74,353.21,281013,,,A*6B
0.02011,-0.98493,0.02432
$GPRMC,182743.000,A,3138.4016,S,06040.3347,W,0.70,359.16,281013,,,A*67
0.01913,-0.98395,0.01945
$GPRMC,182744.000,A,3138.4016,S,06040.3347,W,0.39,359.16,281013,,,A*6D
0.02351,-0.98298,0.01945
$GPRMC,182745.000,A,3138.4015,S,06040.3347,W,0.42,359.16,281013,,,A*63
0.01719,-0.98493,0.02140
$GPRMC,182746.000,A,3138.4007,S,06040.3349,W,0.79,344.15,281013,,,A*6A
0.02059,-0.98881,0.02335
$GPRMC,182747.000,A,3138.4002,S,06040.3351,W,0.76,341.87,281013,,,A*66
0.02692,-0.98687,0.02335
$GPRMC,182748.000,A,3138.4004,S,06040.3351,W,0.42,341.87,281013,,,A*68
0.02205,-0.98687,0.02530
$GPRMC,182749.000,A,3138.4008,S,06040.3350,W,0.02,341.87,281013,,,A*60
0.02643,-0.98978,0.02433
$GPRMC,182750.000,A,3138.4013,S,06040.3348,W,0.30,341.87,281013,,,A*6A
0.02303,-0.98784,0.02530
$GPRMC,182751.000,A,3138.4014,S,06040.3347,W,0.34,341.87,281013,,,A*67
0.01816,-0.98687,0.02140
$GPRMC,182752.000,A,3138.4015,S,06040.3347,W,0.35,341.87,281013,,,A*64
0.02157,-0.98590,0.02335
$GPRMC,182753.000,A,3138.4016,S,06040.3347,W,0.29,341.87,281013,,,A*6B
0.02351,-0.98299,0.02822
$GPRMC,182754.000,A,3138.4017,S,06040.3347,W,0.15,341.87,281013,,,A*62
0.01622,-0.98784,0.01945
$GPRMC,182755.000,A,3138.4017,S,06040.3346,W,0.16,341.87,281013,,,A*61
0.02011,-0.98493,0.02237
$GPRMC,182756.000,A,3138.4017,S,06040.3346,W,0.04,341.87,281013,,,A*61
0.02400,-0.98201,0.01848
$GPRMC,182757.000,A,3138.4017,S,06040.3346,W,0.51,341.87,281013,,,A*60
0.02011,-0.98590,0.02140
$GPRMC,182758.000,A,3138.4015,S,06040.3347,W,0.60,355.02,281013,,,A*66
0.01816,-0.98493,0.02530
$GPRMC,182759.000,A,3138.4010,S,06040.3347,W,0.68,353.04,281013,,,A*6A
0.02448,-0.98687,0.02432
$GPRMC,182800.000,A,3138.4006,S,06040.3348,W,1.12,341.85,281013,,,A*67
0.02448,-0.98687,0.02140
$GPRMC,182801.000,A,3138.4001,S,06040.3347,W,1.09,342.67,281013,,,A*6B
0.02011,-0.99075,0.02140
$GPRMC,182802.000,A,3138.4002,S,06040.3345,W,0.67,1.68,281013,,,A*6B
0.02546,-0.98687,0.02335
$GPRMC,182803.000,A,3138.4002,S,06040.3343,W,0.48,1.68,281013,,,A*61
0.02205,-0.98881,0.02238
$GPRMC,182804.000,A,3138.4000,S,06040.3342,W,0.25,1.68,281013,,,A*6E
0.01914,-0.98881,0.02725
$GPRMC,182805.000,A,3138.3999,S,06040.3342,W,0.18,1.68,281013,,,A*6F
0.01816,-0.98687,0.02627
$GPRMC,182806.000,A,3138.3996,S,06040.3342,W,0.16,1.68,281013,,,A*6D
0.01816,-0.98978,0.02140
$GPRMC,182807.000,A,3138.3996,S,06040.3341,W,0.12,1.68,281013,,,A*6B
0.02448,-0.98590,0.02822
$GPRMC,182808.000,A,3138.3996,S,06040.3341,W,0.53,1.68,281013,,,A*61
0.02400,-0.99173,0.02335
$GPRMC,182809.000,A,3138.3994,S,06040.3342,W,0.54,1.68,281013,,,A*66
0.02157,-0.98978,0.02530
$GPRMC,182810.000,A,3138.3993,S,06040.3342,W,0.38,1.68,281013,,,A*63
0.02254,-0.98590,0.02725
$GPRMC,182811.000,A,3138.3992,S,06040.3342,W,0.29,1.68,281013,,,A*63
0.02692,-0.98784,0.02238
$GPRMC,182812.000,A,3138.3993,S,06040.3342,W,0.56,1.68,281013,,,A*69
0.02400,-0.98590,0.02335
$GPRMC,182813.000,A,3138.3994,S,06040.3342,W,0.49,1.68,281013,,,A*61
0.02011,-0.98298,0.02432
$GPRMC,182814.000,A,3138.3996,S,06040.3343,W,0.41,1.68,281013,,,A*6D
0.01719,-0.98493,0.02335
$GPRMC,182815.000,A,3138.3997,S,06040.3342,W,0.31,1.68,281013,,,A*6B
0.02497,-0.98784,0.02140
$GPRMC,182816.000,A,3138.3997,S,06040.3342,W,0.21,1.68,281013,,,A*69
0.01913,-0.98590,0.02140
$GPRMC,182817.000,A,3138.3997,S,06040.3343,W,0.52,1.68,281013,,,A*6D
0.01962,-0.98978,0.02238
$GPRMC,182818.000,A,3138.3995,S,06040.3343,W,0.78,334.94,281013,,,A*6E
0.02546,-0.99076,0.02238
$GPRMC,182819.000,A,3138.3991,S,06040.3343,W,0.74,334.42,281013,,,A*6C
0.02351,-0.98881,0.02140
$GPRMC,182820.000,A,3138.3989,S,06040.3343,W,0.41,334.42,281013,,,A*69
0.02011,-0.98201,0.02043
$GPRMC,182821.000,A,3138.3990,S,06040.3342,W,0.06,334.42,281013,,,A*62
0.02108,-0.99173,0.02238
$GPRMC,182822.000,A,3138.3989,S,06040.3341,W,0.08,334.42,281013,,,A*64
0.02643,-0.99464,0.02822
$GPRMC,182823.000,A,3138.3983,S,06040.3340,W,0.67,340.19,281013,,,A*6A
0.02546,-0.98784,0.02140
$GPRMC,182824.000,A,3138.3974,S,06040.3339,W,1.02,347.56,281013,,,A*65
0.02351,-0.98396,0.02335
$GPRMC,182825.000,A,3138.3970,S,06040.3340,W,0.60,346.86,281013,,,A*67
0.02011,-0.98978,0.02140
$GPRMC,182826.000,A,3138.3971,S,06040.3341,W,0.17,346.86,281013,,,A*64
0.02254,-0.98201,0.02822
$GPRMC,182827.000,A,3138.3975,S,06040.3340,W,0.23,346.86,281013,,,A*67
0.01913,-0.98881,0.01945
$GPRMC,182828.000,A,3138.3978,S,06040.3340,W,0.44,346.86,281013,,,A*64
0.02108,-0.98978,0.02140
$GPRMC,182829.000,A,3138.3979,S,06040.3339,W,0.42,346.86,281013,,,A*6C
0.02254,-0.98590,0.03601
$GPRMC,182830.000,A,3138.3980,S,06040.3339,W,0.14,346.86,281013,,,A*61
0.01816,-0.98881,0.02725
$GPRMC,182831.000,A,3138.3980,S,06040.3338,W,0.43,346.86,281013,,,A*63
0.02448,-0.98687,0.02043
$GPRMC,182832.000,A,3138.3979,S,06040.3338,W,0.60,27.94,281013,,,A*50
0.01816,-0.98201,0.02043
$GPRMC,182833.000,A,3138.3977,S,06040.3339,W,0.40,27.94,281013,,,A*5C
0.01913,-0.98590,0.02237
$GPRMC,182834.000,A,3138.3978,S,06040.3340,W,0.32,27.94,281013,,,A*5F
0.02448,-0.98881,0.02238
$GPRMC,182835.000,A,3138.3983,S,06040.3340,W,0.54,27.94,281013,,,A*5A
0.02351,-0.98396,0.02043
$GPRMC,182836.000,A,3138.3989,S,06040.3340,W,0.79,170.70,281013,,,A*65
0.02448,-0.99075,0.01458
$GPRMC,182837.000,A,3138.3991,S,06040.3341,W,0.59,172.48,281013,,,A*67
0.01719,-0.98978,0.02140
$GPRMC,182838.000,A,3138.3990,S,06040.3340,W,0.37,172.48,281013,,,A*60
0.01816,-0.98784,0.02043
$GPRMC,182839.000,A,3138.3988,S,06040.3340,W,0.35,172.48,281013,,,A*6A
0.01816,-0.98784,0.02140
$GPRMC,182840.000,A,3138.3986,S,06040.3341,W,0.37,172.48,281013,,,A*69
0.02448,-0.98881,0.02432
$GPRMC,182841.000,A,3138.3986,S,06040.3343,W,0.43,172.48,281013,,,A*69
0.02448,-0.98784,0.02140
$GPRMC,182842.000,A,3138.3987,S,06040.3343,W,0.46,172.48,281013,,,A*6E
0.02351,-0.98590,0.02432
$GPRMC,182843.000,A,3138.3988,S,06040.3344,W,0.33,172.48,281013,,,A*65
0.02448,-0.98590,0.02432
$GPRMC,182844.000,A,3138.3989,S,06040.3344,W,0.10,172.48,281013,,,A*62
0.02011,-0.98784,0.02432
$GPRMC,182845.000,A,3138.3989,S,06040.3344,W,0.18,172.48,281013,,,A*6B
0.01914,-0.98784,0.02238
$GPRMC,182846.000,A,3138.3989,S,06040.3345,W,0.44,172.48,281013,,,A*60
0.01719,-0.98881,0.02530
$GPRMC,182847.000,A,3138.3987,S,06040.3344,W,0.36,172.48,281013,,,A*6B
0.02448,-0.98687,0.01653
$GPRMC,182848.000,A,3138.3986,S,06040.3344,W,0.07,172.48,281013,,,A*67
0.02254,-0.98298,0.02237
$GPRMC,182849.000,A,3138.3986,S,06040.3344,W,0.17,172.48,281013,,,A*67
0.01719,-0.99075,0.02725
$GPRMC,182850.000,A,3138.3987,S,06040.3344,W,0.24,172.48,281013,,,A*6E
0.02400,-0.98687,0.02043
$GPRMC,182851.000,A,3138.3987,S,06040.3344,W,0.36,172.48,281013,,,A*6C
0.02011,-0.98298,0.01945
$GPRMC,182852.000,A,3138.3988,S,06040.3343,W,0.27,172.48,281013,,,A*67
0.02108,-0.98590,0.02043
$GPRMC,182853.000,A,3138.3989,S,06040.3343,W,0.09,172.48,281013,,,A*6B
0.02108,-0.98590,0.02335
$GPRMC,182854.000,A,3138.3989,S,06040.3343,W,0.08,172.48,281013,,,A*6D
0.02205,-0.98784,0.02432
$GPRMC,182855.000,A,3138.3989,S,06040.3343,W,0.08,172.48,281013,,,A*6C
0.02643,-0.98299,0.02238
$GPRMC,182856.000,A,3138.3988,S,06040.3343,W,0.24,172.48,281013,,,A*60
0.01427,-0.98590,0.01945
$GPRMC,182857.000,A,3138.3989,S,06040.3343,W,0.42,172.48,281013,,,A*60
0.02108,-0.98201,0.02432
$GPRMC,182858.000,A,3138.3990,S,06040.3342,W,0.33,172.48,281013,,,A*60
0.02886,-0.99173,0.02043
$GPRMC,182859.000,A,3138.3989,S,06040.3342,W,0.24,172.48,281013,,,A*6F
0.02157,-0.98881,0.02335
$GPRMC,182900.000,A,3138.3988,S,06040.3342,W,0.22,172.48,281013,,,A*65
0.01816,-0.98590,0.01945
$GPRMC,182901.000,A,3138.3989,S,06040.3343,W,0.43,172.48,281013,,,A*63
0.01816,-0.98396,0.02627
$GPRMC,182902.000,A,3138.3990,S,06040.3343,W,0.83,193.67,281013,,,A*66
0.02060,-0.98687,0.03017
$GPRMC,182903.000,A,3138.4003,S,06040.3340,W,1.02,184.17,281013,,,A*69
0.02303,-0.98784,0.02335
$GPRMC,182904.000,A,3138.4002,S,06040.3341,W,0.70,185.51,281013,,,A*69
0.02011,-0.98298,0.02043
$GPRMC,182905.000,A,3138.3993,S,06040.3341,W,0.31,185.51,281013,,,A*6B
0.02303,-0.98784,0.02822
$GPRMC,182906.000,A,3138.3989,S,06040.3340,W,0.28,185.51,281013,,,A*6A
0.02643,-0.99076,0.02433
$GPRMC,182907.000,A,3138.3987,S,06040.3339,W,0.49,185.51,281013,,,A*6C
0.02011,-0.99367,0.02725
$GPRMC,182908.000,A,3138.3986,S,06040.3338,W,0.52,185.51,281013,,,A*69
0.02351,-0.98881,0.02627
$GPRMC,182909.000,A,3138.3988,S,06040.3337,W,0.70,184.89,281013,,,A*6D
0.02351,-0.98298,0.02140
$GPRMC,182910.000,A,3138.3994,S,06040.3336,W,0.78,181.21,281013,,,A*66
0.02351,-0.98687,0.01848
$GPRMC,182911.000,A,3138.3992,S,06040.3336,W,0.74,181.29,281013,,,A*65
0.02643,-0.98590,0.02530
$GPRMC,182912.000,A,3138.3993,S,06040.3336,W,0.56,181.29,281013,,,A*67
0.02205,-0.98687,0.01702
$GPRMC,182913.000,A,3138.3992,S,06040.3337,W,0.55,181.29,281013,,,A*65
0.02546,-0.98979,0.02627
$GPRMC,182914.000,A,3138.3995,S,06040.3337,W,0.62,189.80,281013,,,A*6A
0.02254,-0.98881,0.02238
$GPRMC,182915.000,A,3138.3996,S,06040.3336,W,0.58,189.80,281013,,,A*60
0.02205,-0.98493,0.02043
$GPRMC,182916.000,A,3138.3998,S,06040.3335,W,0.56,189.80,281013,,,A*60
0.02546,-0.98687,0.02043
$GPRMC,182917.000,A,3138.3999,S,06040.3334,W,0.60,170.97,281013,,,A*64
0.03032,-0.98202,0.02530
$GPRMC,182918.000,A,3138.4001,S,06040.3333,W,0.62,171.60,281013,,,A*68
0.01330,-0.99075,0.01848
$GPRMC,182919.000,A,3138.4004,S,06040.3332,W,0.64,171.68,281013,,,A*63
0.02108,-0.98395,0.01945
$GPRMC,182920.000,A,3138.4004,S,06040.3331,W,0.65,168.30,281013,,,A*6E
0.02156,-0.98493,0.01945
$GPRMC,182921.000,A,3138.4004,S,06040.3331,W,0.24,168.30,281013,,,A*6A
0.01913,-0.98395,0.02237
$GPRMC,182922.000,A,3138.4002,S,06040.3330,W,0.05,168.30,281013,,,A*6D
0.02692,-0.98784,0.02530
$GPRMC,182923.000,A,3138.4000,S,06040.3330,W,0.30,167.51,281013,,,A*60
0.02108,-0.98590,0.02140
$GPRMC,182924.000,A,3138.3998,S,06040.3329,W,0.36,167.24,281013,,,A*64
0.02448,-0.99076,0.02238
$GPRMC,182925.000,A,3138.3996,S,06040.3329,W,0.66,1.49,281013,,,A*64
0.01524,-0.98590,0.02237
$GPRMC,182926.000,A,3138.3994,S,06040.3330,W,0.86,0.13,281013,,,A*6D
0.02546,-0.98590,0.02238
$GPRMC,182927.000,A,3138.3992,S,06040.3332,W,0.89,348.40,281013,,,A*6E
0.02351,-0.98493,0.02530
$GPRMC,182928.000,A,3138.3990,S,06040.3333,W,0.91,345.85,281013,,,A*6F
0.02157,-0.98590,0.02919
$GPRMC,182929.000,A,3138.3989,S,06040.3335,W,0.88,337.44,281013,,,A*60
0.02302,-0.98784,0.02043
$GPRMC,182930.000,A,3138.3989,S,06040.3335,W,0.81,338.92,281013,,,A*65
0.02789,-0.98493,0.02335
$GPRMC,182931.000,A,3138.3989,S,06040.3335,W,0.63,339.46,281013,,,A*60
0.01427,-0.98395,0.02237
$GPRMC,182932.000,A,3138.3991,S,06040.3334,W,0.28,339.46,281013,,,A*64
0.02448,-0.98201,0.02335
$GPRMC,182933.000,A,3138.3992,S,06040.3335,W,0.32,339.46,281013,,,A*6C
0.01524,-0.98298,0.01750
$GPRMC,182934.000,A,3138.3991,S,06040.3334,W,0.52,339.46,281013,,,A*6F
0.01622,-0.99270,0.02530
$GPRMC,182935.000,A,3138.3992,S,06040.3333,W,0.46,339.56,281013,,,A*6E
0.02108,-0.98201,0.02627
$GPRMC,182936.000,A,3138.3991,S,06040.3332,W,0.28,339.51,281013,,,A*60
0.02448,-0.98881,0.02335
$GPRMC,182937.000,A,3138.3990,S,06040.3331,W,0.17,339.51,281013,,,A*6F
0.02157,-0.98493,0.02238
$GPRMC,182938.000,A,3138.3990,S,06040.3331,W,0.23,339.51,281013,,,A*67
0.01865,-0.99075,0.02335
$GPRMC,182939.000,A,3138.3991,S,06040.3331,W,0.58,339.51,281013,,,A*6B
0.01233,-0.99270,0.03114
$GPRMC,182940.000,A,3138.3992,S,06040.3330,W,0.73,172.85,281013,,,A*6A
0.02351,-0.98493,0.02335
$GPRMC,182941.000,A,3138.3997,S,06040.3329,W,0.77,168.93,281013,,,A*6E
0.01719,-0.98784,0.02530
$GPRMC,182942.000,A,3138.3998,S,06040.3330,W,0.74,169.08,281013,,,A*6A
0.02205,-0.99173,0.02335
$GPRMC,182943.000,A,3138.4001,S,06040.3330,W,0.77,170.31,281013,,,A*64
0.02303,-0.98784,0.02238
$GPRMC,182944.000,A,3138.4002,S,06040.3331,W,0.71,173.98,281013,,,A*67
0.02254,-0.98493,0.02432
$GPRMC,182945.000,A,3138.4003,S,06040.3331,W,0.55,173.98,281013,,,A*61
0.02449,-0.98687,0.03114
$GPRMC,182946.000,A,3138.4003,S,06040.3330,W,0.61,156.60,281013,,,A*64
0.01622,-0.98492,0.01750
$GPRMC,182947.000,A,3138.4007,S,06040.3331,W,0.83,157.67,281013,,,A*6A
0.02011,-0.98784,0.02432
$GPRMC,182948.000,A,3138.4012,S,06040.3332,W,0.90,159.84,281013,,,A*63
0.01524,-0.98590,0.01848
$GPRMC,182949.000,A,3138.4020,S,06040.3330,W,1.07,161.10,281013,,,A*68
0.01719,-0.99464,0.02140
$GPRMC,182950.000,A,3138.4025,S,06040.3330,W,1.00,162.75,281013,,,A*62
0.02011,-0.99610,0.02043
$GPRMC,182951.000,A,3138.4026,S,06040.3329,W,0.59,165.16,281013,,,A*67
0.02011,-0.99173,0.02238
$GPRMC,182952.000,A,3138.4024,S,06040.3328,W,0.60,149.90,281013,,,A*6D
0.02205,-0.98201,0.02919
$GPRMC,182953.000,A,3138.4028,S,06040.3327,W,0.78,150.47,281013,,,A*64
0.01233,-0.98687,0.01848
$GPRMC,182954.000,A,3138.4031,S,06040.3326,W,0.78,151.45,281013,,,A*69
0.02157,-0.98687,0.01945
$GPRMC,182955.000,A,3138.4029,S,06040.3325,W,0.49,151.45,281013,,,A*60
0.01914,-0.98687,0.02432
$GPRMC,182956.000,A,3138.4029,S,06040.3325,W,0.30,151.45,281013,,,A*6D
0.02302,-0.98493,0.02140
$GPRMC,182957.000,A,3138.4028,S,06040.3325,W,0.13,151.45,281013,,,A*6C
0.01816,-0.98978,0.02238
$GPRMC,182958.000,A,3138.4029,S,06040.3324,W,0.13,151.64,281013,,,A*60
0.02205,-0.98493,0.02432
$GPRMC,182959.000,A,3138.4029,S,06040.3324,W,0.12,151.55,281013,,,A*62
0.02108,-0.98687,0.02140
$GPRMC,183000.000,A,3138.4028,S,06040.3324,W,0.26,151.55,281013,,,A*60
0.01622,-0.98493,0.02140
$GPRMC,183001.000,A,3138.4028,S,06040.3324,W,1.08,358.11,281013,,,A*67
0.02351,-0.98881,0.02335
$GPRMC,183002.000,A,3138.4020,S,06040.3323,W,1.33,7.73,281013,,,A*6E
0.01913,-0.98978,0.01848
$GPRMC,183003.000,A,3138.4015,S,06040.3323,W,1.05,10.47,281013,,,A*5D
0.02983,-0.99076,0.02043
$GPRMC,183004.000,A,3138.4020,S,06040.3322,W,0.33,10.47,281013,,,A*59
0.02351,-0.98881,0.02432
$GPRMC,183005.000,A,3138.4027,S,06040.3323,W,0.68,177.70,281013,,,A*64
0.02011,-0.98396,0.02335
$GPRMC,183006.000,A,3138.4036,S,06040.3323,W,0.89,178.79,281013,,,A*6E
0.02254,-0.98687,0.02725
$GPRMC,183007.000,A,3138.4043,S,06040.3322,W,0.91,179.42,281013,,,A*6C
0.02691,-0.98784,0.02043
$GPRMC,183008.000,A,3138.4050,S,06040.3320,W,0.93,180.36,281013,,,A*64
0.01914,-0.99173,0.02140
$GPRMC,183009.000,A,3138.4057,S,06040.3318,W,1.13,170.88,281013,,,A*6A
0.02546,-0.99076,0.02238
$GPRMC,183010.000,A,3138.4065,S,06040.3318,W,1.29,173.60,281013,,,A*6F
0.02108,-0.98978,0.02238
$GPRMC,183011.000,A,3138.4071,S,06040.3317,W,1.23,176.51,281013,,,A*69
0.02108,-0.98687,0.02043
$GPRMC,183012.000,A,3138.4076,S,06040.3316,W,0.94,172.21,281013,,,A*62
0.02643,-0.98493,0.02432
$GPRMC,183013.000,A,3138.4064,S,06040.3318,W,0.12,172.21,281013,,,A*60
0.02692,-0.98784,0.02335
$GPRMC,183014.000,A,3138.4057,S,06040.3317,W,0.29,172.21,281013,,,A*60
0.01962,-0.98881,0.01653
$GPRMC,183015.000,A,3138.4060,S,06040.3316,W,0.50,172.21,281013,,,A*6A
0.01816,-0.98590,0.02627
$GPRMC,183016.000,A,3138.4065,S,06040.3316,W,0.48,172.21,281013,,,A*65
0.02545,-0.98298,0.01945
$GPRMC,183017.000,A,3138.4066,S,06040.3316,W,0.12,172.21,281013,,,A*68
0.02059,-0.98298,0.02724
$GPRMC,183018.000,A,3138.4066,S,06040.3316,W,0.21,172.21,281013,,,A*67
0.02157,-0.99172,0.01458
$GPRMC,183019.000,A,3138.4066,S,06040.3317,W,0.12,172.21,281013,,,A*67
0.02303,-0.98687,0.02725
$GPRMC,183020.000,A,3138.4065,S,06040.3317,W,0.09,172.21,281013,,,A*64
0.01816,-0.98978,0.02432
$GPRMC,183021.000,A,3138.4065,S,06040.3317,W,0.27,172.21,281013,,,A*69
0.02351,-0.98201,0.02238
$GPRMC,183022.000,A,3138.4065,S,06040.3318,W,1.29,317.62,281013,,,A*6C
0.02205,-0.98978,0.02043
$GPRMC,183023.000,A,3138.4071,S,06040.3317,W,1.09,325.04,281013,,,A*64
0.02254,-0.98881,0.02140
$GPRMC,183024.000,A,3138.4081,S,06040.3316,W,0.64,323.63,281013,,,A*60
0.01913,-0.98493,0.02237
$GPRMC,183025.000,A,3138.4099,S,06040.3313,W,0.40,323.63,281013,,,A*6B
0.02254,-0.99367,0.02043
$GPRMC,183026.000,A,3138.4108,S,06040.3311,W,0.90,175.57,281013,,,A*68
0.01427,-0.98687,0.01848
$GPRMC,183027.000,A,3138.4116,S,06040.3309,W,0.85,174.87,281013,,,A*67
0.02351,-0.98590,0.02530
$GPRMC,183028.000,A,3138.4118,S,06040.3308,W,0.57,174.87,281013,,,A*68
0.02156,-0.98493,0.01945
$GPRMC,183029.000,A,3138.4116,S,06040.3307,W,0.80,171.11,281013,,,A*68
0.01719,-0.99367,0.02335
$GPRMC,183030.000,A,3138.4122,S,06040.3309,W,1.08,171.92,281013,,,A*63
0.02302,-0.98687,0.02043
$GPRMC,183031.000,A,3138.4129,S,06040.3310,W,1.25,183.94,281013,,,A*65
0.02351,-0.98299,0.02627
$GPRMC,183032.000,A,3138.4142,S,06040.3308,W,1.22,189.24,281013,,,A*64
0.01816,-0.98881,0.02140
$GPRMC,183033.000,A,3138.4150,S,06040.3306,W,1.18,188.18,281013,,,A*6F
0.02449,-0.98784,0.03163
$GPRMC,183034.000,A,3138.4161,S,06040.3303,W,1.21,186.21,281013,,,A*61
0.02400,-0.98590,0.02432
$GPRMC,183035.000,A,3138.4176,S,06040.3299,W,1.39,168.20,281013,,,A*6C
0.02448,-0.98396,0.02627
$GPRMC,183036.000,A,3138.4185,S,06040.3297,W,1.40,168.17,281013,,,A*67
0.02449,-0.99270,0.02530
$GPRMC,183037.000,A,3138.4187,S,06040.3297,W,1.44,169.63,281013,,,A*62
0.01962,-0.98590,0.02724
$GPRMC,183038.000,A,3138.4185,S,06040.3297,W,1.44,167.39,281013,,,A*6E
0.02302,-0.98201,0.02140
$GPRMC,183039.000,A,3138.4155,S,06040.3304,W,0.99,165.72,281013,,,A*65
0.02400,-0.98396,0.02238
$GPRMC,183040.000,A,3138.4157,S,06040.3304,W,1.01,167.18,281013,,,A*67
0.02400,-0.98978,0.02335
$GPRMC,183041.000,A,3138.4159,S,06040.3305,W,1.02,170.14,281013,,,A*60
0.02254,-0.98784,0.02335
$GPRMC,183042.000,A,3138.4141,S,06040.3311,W,0.74,176.11,281013,,,A*6C
0.02011,-0.98687,0.02725
$GPRMC,183043.000,A,3138.4141,S,06040.3312,W,0.74,182.89,281013,,,A*64
0.02254,-0.98881,0.02432
$GPRMC,183044.000,A,3138.4140,S,06040.3314,W,0.75,182.20,281013,,,A*66
0.01914,-0.98978,0.02238
$GPRMC,183045.000,A,3138.4123,S,06040.3319,W,0.68,181.38,281013,,,A*69
0.02011,-0.98881,0.01848
$GPRMC,183046.000,A,3138.4114,S,06040.3321,W,0.63,162.90,281013,,,A*61
0.02108,-0.98493,0.02043
$GPRMC,183047.000,A,3138.4116,S,06040.3320,W,0.68,162.49,281013,,,A*6C
0.02546,-0.99367,0.02433
$GPRMC,183048.000,A,3138.4108,S,06040.3321,W,0.64,157.02,281013,,,A*68
0.02011,-0.99173,0.02822
$GPRMC,183049.000,A,3138.4108,S,06040.3322,W,0.60,157.02,281013,,,A*6E
0.02449,-0.99076,0.02530
$GPRMC,183050.000,A,3138.4109,S,06040.3321,W,0.58,157.02,281013,,,A*6F
0.01816,-0.98493,0.02627
$GPRMC,183051.000,A,3138.4113,S,06040.3320,W,0.81,164.18,281013,,,A*6B
0.02205,-0.99076,0.02627
$GPRMC,183052.000,A,3138.4116,S,06040.3320,W,0.77,169.13,281013,,,A*62
0.02011,-0.98881,0.02043
$GPRMC,183053.000,A,3138.4116,S,06040.3321,W,0.43,169.13,281013,,,A*65
0.01719,-0.98493,0.02919
$GPRMC,183054.000,A,3138.4115,S,06040.3321,W,0.22,169.13,281013,,,A*66
0.01719,-0.98298,0.02530
$GPRMC,183055.000,A,3138.4115,S,06040.3323,W,0.20,169.13,281013,,,A*67
0.01914,-0.99367,0.02432
$GPRMC,183056.000,A,3138.4114,S,06040.3324,W,0.18,169.13,281013,,,A*69
0.01962,-0.99270,0.01556
$GPRMC,183057.000,A,3138.4114,S,06040.3324,W,0.21,169.13,281013,,,A*62
0.02205,-0.99173,0.02530
$GPRMC,183058.000,A,3138.4115,S,06040.3324,W,0.22,169.13,281013,,,A*6F
0.02594,-0.98979,0.02627
$GPRMC,183059.000,A,3138.4116,S,06040.3324,W,0.21,169.13,281013,,,A*6E
0.02546,-0.98590,0.02335
$GPRMC,183100.000,A,3138.4116,S,06040.3325,W,0.27,169.13,281013,,,A*64
0.02594,-0.98396,0.02335
$GPRMC,183101.000,A,3138.4115,S,06040.3326,W,0.31,169.13,281013,,,A*62
0.02108,-0.98396,0.02627
$GPRMC,183102.000,A,3138.4115,S,06040.3326,W,0.69,316.96,281013,,,A*6B
0.02448,-0.98493,0.02043
$GPRMC,183103.000,A,3138.4104,S,06040.3330,W,1.32,330.85,281013,,,A*64
0.02205,-0.98784,0.02238
$GPRMC,183104.000,A,3138.4096,S,06040.3332,W,1.51,333.55,281013,,,A*60
0.02546,-0.98493,0.02627
$GPRMC,183105.000,A,3138.4093,S,06040.3334,W,1.23,336.70,281013,,,A*65
0.02351,-0.98881,0.02335
$GPRMC,183106.000,A,3138.4093,S,06040.3334,W,0.66,349.26,281013,,,A*6D
0.02351,-0.98784,0.02335
$GPRMC,183107.000,A,3138.4088,S,06040.3336,W,0.15,349.26,281013,,,A*60
0.02254,-0.98590,0.02530
$GPRMC,183108.000,A,3138.4081,S,06040.3339,W,0.09,349.26,281013,,,A*64
0.02108,-0.99464,0.02043
$GPRMC,183109.000,A,3138.4074,S,06040.3342,W,0.09,349.26,281013,,,A*63
0.02108,-0.98784,0.02238
$GPRMC,183110.000,A,3138.4067,S,06040.3345,W,0.17,349.26,281013,,,A*61
0.02011,-0.99173,0.02043
$GPRMC,183111.000,A,3138.4066,S,06040.3345,W,0.05,349.26,281013,,,A*62
0.01816,-0.98687,0.02237
$GPRMC,183112.000,A,3138.4066,S,06040.3345,W,0.12,349.26,281013,,,A*67
0.02351,-0.98590,0.02043
$GPRMC,183113.000,A,3138.4067,S,06040.3345,W,0.34,349.26,281013,,,A*63
0.02448,-0.99076,0.02140
$GPRMC,183114.000,A,3138.4067,S,06040.3346,W,0.23,349.26,281013,,,A*61
0.02011,-0.99076,0.02871
$GPRMC,183115.000,A,3138.4067,S,06040.3347,W,0.19,349.26,281013,,,A*68
0.02011,-0.98590,0.02530
$GPRMC,183116.000,A,3138.4068,S,06040.3347,W,0.47,349.26,281013,,,A*6F
0.01914,-0.98784,0.02238
$GPRMC,183117.000,A,3138.4069,S,06040.3348,W,0.46,349.26,281013,,,A*61
0.01914,-0.99270,0.02822
$GPRMC,183118.000,A,3138.4070,S,06040.3348,W,0.35,349.26,281013,,,A*62
0.02108,-0.98784,0.02335
$GPRMC,183119.000,A,3138.4071,S,06040.3348,W,0.26,349.26,281013,,,A*60
0.02108,-0.99658,0.02335
$GPRMC,183120.000,A,3138.4072,S,06040.3348,W,0.46,349.26,281013,,,A*6F
0.02351,-0.98590,0.02335
$GPRMC,183121.000,A,3138.4070,S,06040.3348,W,1.11,341.07,281013,,,A*64
0.02351,-0.98687,0.02140
$GPRMC,183122.000,A,3138.4059,S,06040.3349,W,1.07,346.08,281013,,,A*62
0.02011,-0.98687,0.02238
$GPRMC,183123.000,A,3138.4057,S,06040.3349,W,0.78,349.65,281013,,,A*60
0.02157,-0.98881,0.02335
$GPRMC,183124.000,A,3138.4058,S,06040.3348,W,0.41,349.65,281013,,,A*63
0.01913,-0.98687,0.02237
$GPRMC,183125.000,A,3138.4058,S,06040.3346,W,0.39,349.65,281013,,,A*63
0.01865,-0.98687,0.02335
$GPRMC,183126.000,A,3138.4050,S,06040.3349,W,0.89,335.34,281013,,,A*63
0.02205,-0.98396,0.02140
$GPRMC,183127.000,A,3138.4041,S,06040.3352,W,0.94,333.08,281013,,,A*6D
0.02546,-0.98201,0.02432
$GPRMC,183128.000,A,3138.4039,S,06040.3352,W,0.59,334.52,281013,,,A*64
0.02497,-0.98978,0.02140
$GPRMC,183129.000,A,3138.4043,S,06040.3350,W,0.16,334.52,281013,,,A*61
0.01914,-0.98978,0.02335
$GPRMC,183130.000,A,3138.4046,S,06040.3349,W,0.11,334.52,281013,,,A*63
0.02351,-0.98784,0.02335
$GPRMC,183131.000,A,3138.4045,S,06040.3348,W,0.11,334.52,281013,,,A*60
0.02643,-0.98493,0.03017
$GPRMC,183132.000,A,3138.4040,S,06040.3350,W,0.30,334.52,281013,,,A*6C
0.02108,-0.98784,0.02238
$GPRMC,183133.000,A,3138.4039,S,06040.3350,W,0.43,334.51,281013,,,A*64
0.02254,-0.98396,0.01945
$GPRMC,183134.000,A,3138.4038,S,06040.3350,W,0.43,334.51,281013,,,A*62
0.02254,-0.99075,0.02140
$GPRMC,183135.000,A,3138.4037,S,06040.3350,W,0.70,340.95,281013,,,A*67
0.02157,-0.98881,0.02335
$GPRMC,183136.000,A,3138.4031,S,06040.3352,W,0.65,343.85,281013,,,A*66
0.02789,-0.98784,0.02043
$GPRMC,183137.000,A,3138.4030,S,06040.3352,W,0.29,343.85,281013,,,A*6E
0.02351,-0.98687,0.02140
$GPRMC,183138.000,A,3138.4032,S,06040.3351,W,0.02,343.85,281013,,,A*69
0.02011,-0.98493,0.02432
$GPRMC,183139.000,A,3138.4033,S,06040.3351,W,0.07,343.85,281013,,,A*6C
0.02205,-0.98687,0.01848
$GPRMC,183140.000,A,3138.4031,S,06040.3352,W,0.33,343.85,281013,,,A*64
0.02448,-0.98687,0.02043
$GPRMC,183141.000,A,3138.4031,S,06040.3353,W,0.55,343.85,281013,,,A*64
0.02303,-0.98687,0.02432
$GPRMC,183142.000,A,3138.4029,S,06040.3353,W,0.76,337.27,281013,,,A*64
0.02254,-0.98590,0.01751
$GPRMC,183143.000,A,3138.4029,S,06040.3354,W,0.47,337.27,281013,,,A*60
0.02643,-0.99173,0.01848
$GPRMC,183144.000,A,3138.4030,S,06040.3353,W,0.28,337.27,281013,,,A*61
0.01719,-0.98784,0.01945
$GPRMC,183145.000,A,3138.4030,S,06040.3354,W,0.26,337.27,281013,,,A*69
0.02303,-0.98784,0.02335
$GPRMC,183146.000,A,3138.4024,S,06040.3357,W,0.84,323.61,281013,,,A*63
0.02351,-0.98784,0.02919
$GPRMC,183147.000,A,3138.4015,S,06040.3361,W,1.11,324.36,281013,,,A*6D
0.02303,-0.98784,0.02335
$GPRMC,183148.000,A,3138.4009,S,06040.3362,W,1.07,325.77,281013,,,A*6F
0.01622,-0.98590,0.02335
$GPRMC,183149.000,A,3138.4007,S,06040.3361,W,0.89,344.26,281013,,,A*67
0.02351,-0.99076,0.02627
$GPRMC,183150.000,A,3138.4007,S,06040.3360,W,0.42,344.26,281013,,,A*69
0.02400,-0.98396,0.02140
$GPRMC,183151.000,A,3138.4013,S,06040.3357,W,0.27,344.26,281013,,,A*6A
0.02594,-0.98881,0.03017
$GPRMC,183152.000,A,3138.4020,S,06040.3354,W,0.68,156.15,281013,,,A*60
0.02546,-0.98687,0.01848
$GPRMC,183153.000,A,3138.4027,S,06040.3351,W,0.89,155.02,281013,,,A*69
0.02108,-0.98590,0.02627
$GPRMC,183154.000,A,3138.4028,S,06040.3349,W,0.89,155.63,281013,,,A*6F
0.02011,-0.98881,0.02140
$GPRMC,183155.000,A,3138.4027,S,06040.3349,W,0.81,156.82,281013,,,A*65
0.02157,-0.98978,0.02335
$GPRMC,183156.000,A,3138.4027,S,06040.3349,W,0.77,172.34,281013,,,A*64
0.02303,-0.99076,0.02627
$GPRMC,183157.000,A,3138.4025,S,06040.3349,W,0.47,172.34,281013,,,A*64
0.02011,-0.98979,0.03650
$GPRMC,183158.000,A,3138.4019,S,06040.3351,W,0.21,172.34,281013,,,A*6D
0.02254,-0.98493,0.02238
$GPRMC,183159.000,A,3138.4012,S,06040.3353,W,0.65,327.09,281013,,,A*69
0.01719,-0.98978,0.02432
$GPRMC,183200.000,A,3138.4008,S,06040.3355,W,0.70,326.23,281013,,,A*66
0.02302,-0.98493,0.02335
$GPRMC,183201.000,A,3138.4007,S,06040.3356,W,0.69,326.06,281013,,,A*64
0.02108,-0.98784,0.03017
$GPRMC,183202.000,A,3138.4007,S,06040.3355,W,0.33,326.06,281013,,,A*6B
0.01816,-0.98590,0.02627
$GPRMC,183203.000,A,3138.4008,S,06040.3354,W,0.29,326.06,281013,,,A*6F
0.02351,-0.98978,0.02627
$GPRMC,183204.000,A,3138.4008,S,06040.3355,W,0.05,326.06,281013,,,A*67
0.02448,-0.98978,0.02335
$GPRMC,183205.000,A,3138.4007,S,06040.3356,W,0.05,326.03,281013,,,A*6F
0.02254,-0.99561,0.01946
$GPRMC,183206.000,A,3138.4008,S,06040.3356,W,0.15,326.04,281013,,,A*65
0.01913,-0.98396,0.02432
$GPRMC,183207.000,A,3138.4007,S,06040.3357,W,0.46,326.04,281013,,,A*6C
0.02594,-0.98396,0.02238
$GPRMC,183208.000,A,3138.4006,S,06040.3358,W,0.70,327.08,281013,,,A*65
0.02108,-0.99270,0.02530
$GPRMC,183209.000,A,3138.4002,S,06040.3360,W,0.72,337.96,281013,,,A*6F
0.01622,-0.99270,0.02140
$GPRMC,183210.000,A,3138.4003,S,06040.3359,W,0.79,341.50,281013,,,A*6C
0.02108,-0.99173,0.02140
$GPRMC,183211.000,A,3138.4004,S,06040.3360,W,1.13,340.80,281013,,,A*61
0.02254,-0.98687,0.02432
$GPRMC,183212.000,A,3138.4005,S,06040.3361,W,1.18,339.70,281013,,,A*68
0.01719,-0.98104,0.01848
$GPRMC,183213.000,A,3138.4000,S,06040.3364,W,1.12,328.95,281013,,,A*68
0.02351,-0.98881,0.02140
$GPRMC,183214.000,A,3138.4006,S,06040.3364,W,0.26,328.95,281013,,,A*6F
0.02302,-0.98250,0.02432
$GPRMC,183215.000,A,3138.4013,S,06040.3363,W,0.71,174.89,281013,,,A*69
0.01914,-0.99270,0.02335
$GPRMC,183216.000,A,3138.4025,S,06040.3360,W,1.17,174.12,281013,,,A*6F
0.02108,-0.98493,0.02530
$GPRMC,183217.000,A,3138.4032,S,06040.3357,W,1.18,173.52,281013,,,A*60
0.02157,-0.99270,0.02530
